GHCN identifier,Station_name,Latitude,Longitude,Elevation,yearmonth,Precipitation_value,Measurement_flag,Quality_control_flag,Source_flag,Source_index
AE000041196,SHARJAH INTER. AIRP,25.333,55.517,34,202305,3,B,NA,S,000003
AEM00041194,DUBAI INTL,25.255,55.364,10.4,202305,3,NA,NA,S,000004
AEM00041217,ABU DHABI INTERNATIONAL AIRPOR,24.4333,54.65,27,202305,30,NA,NA,M,116581
AG000060390,DAR-EL-BEIDA,36.6833,3.2167,29,202305,1310,NA,NA,M,117118
AG000060590,EL-GOLEA,30.5667,2.8667,403,202305,20,NA,NA,M,117177
AG000060611,IN-AMENAS,28.05,9.6333,562,202305,0,NA,K,M,117182
AG000060680,TAMANRASSET,22.8,5.4333,1377,202305,0,NA,NA,M,117189
AGE00147708,TIZI-OUZOU,36.7,4.1333,154,202305,1560,NA,NA,M,117119
AGE00147716,NEMOURS (GHAZAOUET),35.1,-1.85,83,202305,35,NA,NA,S,000027
AGE00147718,BISKRA,34.8,5.7333,89,202305,150,NA,NA,M,117158
AGE00147719,LAGHOUAT,33.7997,2.89,767,202305,334,NA,NA,S,000030
AGM00060351,JIJEL- ACHOUAT,36.8,5.8833,10,202305,2150,NA,NA,M,117108
AGM00060355,SKIKDA,36.8833,6.9,3,202305,900,NA,NA,M,117111
AGM00060360,ANNABA,36.8333,7.8167,8,202305,2090,NA,NA,M,117112
AGM00060369,ALGER-PORT,36.7667,3.1,12,202305,1150,NA,NA,M,117115
AGM00060402,BEJAIA-AEROPORT,36.7167,5.0667,7,202305,1370,NA,NA,M,117121
AGM00060403,GUELMA,36.4667,7.4667,228,202305,1680,NA,NA,M,117122
AGM00060415,AIN-BESSAM,36.2833,3.6667,752,202305,830,NA,NA,M,117126
AGM00060417,BOUIRA,36.383,3.883,560,202305,770,NA,NA,M,117127
AGM00060419,CONSTANTINE,36.2833,6.6167,692,202305,1310,NA,NA,M,117128
AGM00060421,OUM EL BOUAGHI,35.8667,7.1167,891,202305,980,NA,NA,M,117129
AGM00060423,SOUK AHRAS,36.25,7.95,831,202305,2020,NA,NA,M,117130
AGM00060425,CHLEF,36.2167,1.3333,163,202305,330,NA,NA,M,117131
AGM00060430,MILIANA,36.3,2.2333,721,202305,530,NA,NA,M,117133
AGM00060437,MEDEA,36.2833,2.7333,1036,202305,1270,NA,NA,M,117134
AGM00060444,BORDJ-BOU-ARRERIDJ,36.0667,4.6667,957,202305,740,NA,NA,M,117136
AGM00060445,SETIF/AIN ARNAT,36.1667,5.3167,1015,202305,1130,NA,NA,M,117137
AGM00060452,ARZEW,35.8167,-0.2667,4,202305,50,NA,NA,M,117138
AGM00060457,MOSTAGANEM,35.8833,0.1167,141,202305,40,NA,NA,M,117140
AGM00060467,M'SILA,35.6667,4.5,442,202305,390,NA,NA,M,117142
AGM00060468,BATNA,35.75,6.3167,826,202305,770,NA,NA,M,117143
AGM00060471,BARIKA,35.333,5.333,461,202305,450,NA,NA,M,117144
AGM00060475,TEBESSA,35.4667,8.1167,820,202305,1260,NA,NA,M,117145
AGM00060476,KHENCHELLA,35.4667,7.0833,987,202305,1280,NA,NA,M,117146
AGM00060490,ORAN-SENIA,35.6333,-0.6,91,202305,110,NA,NA,M,117147
AGM00060507,MASCARA-GHRISS,35.35,0.15,513,202305,70,NA,NA,M,117150
AGM00060511,TIARET,35.35,1.4667,978,202305,190,NA,NA,M,117151
AGM00060514,KSAR CHELLALA,35.1667,2.3167,800,202305,220,NA,NA,M,117152
AGM00060515,BOU-SAADA,35.3333,4.2,461,202305,320,NA,NA,M,117153
AGM00060518,BENI-SAF,35.3,-1.35,70,202305,80,NA,NA,M,117155
AGM00060520,SIDI-BEL-ABBES,35.2,-0.6167,476,202305,20,NA,NA,M,117156
AGM00060522,MAGHNIA,34.8167,-1.7833,428,202305,160,NA,NA,M,117157
AGM00060531,TLEMCEN-ZENATA,35.0167,-1.4667,247,202305,70,NA,NA,M,117159
AGM00060535,DJELFA,34.683,3.3833,1185,202305,250,NA,NA,M,117160
AGM00060536,SAIDA,34.8667,0.15,752,202305,190,NA,NA,M,117161
AGM00060540,EL-KHEITER,34.15,0.0667,1001,202305,350,NA,NA,M,117162
AGM00060549,MECHERIA,33.5333,-0.2833,1124,202305,260,NA,NA,M,117164
AGM00060550,EL-BAYADH,33.7167,1.0833,1347,202305,270,NA,NA,M,117165
AGM00060555,TOUGGOURT,33.0667,6.0833,92,202305,60,NA,NA,M,117166
AGM00060557,"NAAMA",33.2667,-0.3,1167,202305,240,NA,NA,M,117167
AGM00060559,EL-OUED,33.5,6.7833,69,202305,110,NA,NA,M,117168
AGM00060560,AIN-SEFRA,32.7667,-0.6,1065,202305,390,NA,NA,M,117169
AGM00060563,HASSIR'MEL,32.9333,3.3,769,202305,340,NA,NA,M,117170
AGM00060566,GHARDAIA,32.4,3.8,469,202305,20,NA,NA,M,117171
AGM00060571,BECHAR,31.5,-2.25,816,202305,50,NA,NA,M,117172
AGM00060580,OUARGLA,31.9333,5.4,148,202305,60,NA,NA,M,117174
AGM00060581,HASSI-MESSAOUD,31.6667,6.15,146,202305,40,NA,NA,M,117175
AGM00060602,BENI-ABBES,30.1333,-2.1667,505,202305,0,NA,NA,M,117179
AGM00060603,RHOURD NOUSS,29.7167,6.7,252,202305,0,NA,NA,M,117180
AGM00060607,TIMIMOUN,29.25,0.2833,317,202305,0,NA,K,M,117181
AGM00060620,ADRAR,27.8167,-0.1833,283,202305,0,NA,NA,M,117183
AGM00060630,IN-SALAH,27.2333,2.5,269,202305,0,NA,K,M,117184
AGM00060640,ILLIZI,26.5,8.4167,541,202305,0,NA,K,M,117186
AGM00060670,DJANET,24.2667,9.4667,970,202305,0,NA,NA,M,117188
AGM00060690,IN-GUEZZAM,19.567,5.767,401,202305,20,B,NA,S,000090
AGMLP060368,TARF,36.75,8.0833,4,202305,2310,NA,NA,M,117114
AGMLP060387,DELLYS,36.92,3.95,8,202305,2060,NA,NA,M,117117
AGMLP060405,BOUCHEGOUF,36.5,7.72,111,202305,1240,NA,NA,M,117123
AGMLP060410,TENES,36.5,1.3333,18,202305,340,NA,NA,M,117125
AGMLP060585,KRECHBA,29.0731,2.2092,0,202305,0,NA,NA,M,117176
AGMLP060686,BORDJ-BADJ-MOKHTAR,21.3333,0.95,399,202305,0,NA,NA,M,117190
AGXLP332832,GHAZAOUET,35.1,-1.8667,5,202305,40,NA,NA,M,117154
AJ000037575,ZAKATALA,41.55,46.667,490,202305,9058,A,NA,S,000091
AJ000037675,GUBA,41.367,48.517,552,202305,3042,NA,NA,S,000101
AJ000037749,GOYCHAY,40.65,47.75,95,202305,6028,NA,NA,S,000110
AJ000037756,MARAZA,40.533,48.933,755,202305,67,B,NA,S,000112
AJ000037985,LANKARAN,38.7500,48.817,-12,202305,3117,NA,NA,S,000155
AM000037618,TASHIR,41.117,44.283,1509,202305,1122,NA,NA,S,000162
AM000037699,APARAN,40.533,44.383,1892,202305,3168,C,NA,S,000173
AM000037711,IDJEVAN,40.867,45.15,733,202305,3821,NA,NA,S,000179
AM000037789,YEREVAN AERO,40.2169,44.5017,1134,202305,270,NA,NA,M,116384
AM000037792,HRAZDAN,40.483,44.75,1761,202305,4159,E,NA,S,000192
AM000037801,GAVAR,40.35,45.1331,1961,202305,2542,B,NA,S,000194
AM000037815,MASRIK,40.2,45.75,1940,202305,1755,NA,NA,S,000197
AM000037897,SISIAN,39.533,46.017,1581,202305,3882,NA,NA,S,000208
AMM00037717,SEVAN OZERO,40.5658,45.0083,1917.2,202305,670,NA,NA,M,116380
AMMLP037682,AMASIA,40.9497,43.78,1876,202305,790,NA,NA,M,116377
AMMLP037781,ARAGATS H/M,40.4744,44.1811,3227,202305,560,NA,NA,M,116383
AQW00061705,AS PAGO PAGO WSO AP,-14.3306,-170.7136,3.7,202305,3997,C,NA,D,000238
AR000870470,SALTA AERO,-24.8444,-65.4758,1221,202305,10,NA,NA,M,118213
AR000875440,PEHUAJO AERO,-35.8408,-61.8597,87,202305,460,NA,NA,M,118267
AR000875850,BUENOS AIRES OBSERVATORIO,-34.5833,-58.4833,25,202305,1710,NA,NA,M,118274
AR000877500,BAHIA BLANCA AERO,-38.7147,-62.1631,83,202305,140,NA,NA,M,118294
ARM00087016,ORAN AERO,-23.1547,-64.3281,357,202305,80,NA,NA,M,118210
ARM00087022,TARTAGAL AERO,-22.6167,-63.7967,450,202305,90,NA,NA,M,118211
ARM00087046,JUJUY AERO,-24.3839,-65.0956,905,202305,0,NA,NA,M,118212
ARM00087121,TUCUMAN AERO,-26.8372,-65.1083,450,202305,220,NA,NA,M,118218
ARM00087148,PRESIDENCIA ROQUE SAENZ PENA A,-26.7464,-60.4867,93,202305,140,NA,NA,M,118220
ARM00087162,FORMOSA AERO,-26.2125,-58.2292,60,202305,1160,NA,NA,M,118223
ARM00087178,POSADAS AERO.,-27.3911,-55.9669,125,202305,1790,NA,NA,M,118226
ARM00087222,CATAMARCA AERO.,-28.5936,-65.7553,454,202305,90,NA,NA,M,118229
ARM00087244,VILLA DE MARIA DEL RIO SECO,-29.9058,-63.7275,341,202305,510,NA,NA,M,118230
ARM00087289,PASO DE LOS LIBRES AERO,-29.6894,-57.1486,70,202305,1430,NA,NA,M,118234
ARM00087311,SAN JUAN AERO,-31.5747,-68.4225,598,202305,0,NA,NA,M,118236
ARM00087320,CHAMICAL AERO,-30.3478,-66.2961,461,202305,60,NA,NA,M,118237
ARM00087328,VILLA DOLORES AERO,-31.9514,-65.1492,569,202305,150,NA,NA,M,118239
ARM00087349,PILAR OBSERVATORIO,-31.6667,-63.8833,338,202305,160,NA,NA,M,118243
ARM00087395,CONCORDIA AERO,-31.3022,-58.0014,38,202305,480,NA,NA,M,118248
ARM00087436,SAN LUIS AERO,-33.2744,-66.3514,713,202305,30,NA,NA,M,118253
ARM00087448,VILLA REYNOLDS AERO,-33.7181,-65.3736,486,202305,20,NA,NA,M,118254
ARM00087467,MARCOS JUAREZ AERO,-32.6797,-62.1506,114,202305,400,NA,NA,M,118256
ARM00087480,ROSARIO AERO,-32.9167,-60.7833,25,202305,1870,NA,NA,M,118258
ARM00087497,GUALEGUAYCHU AERO,-33.0125,-58.6108,21,202305,1580,NA,NA,M,118261
ARM00087506,MALARGUE AERO,-35.4814,-69.5833,1425,202305,20,NA,NA,M,118262
ARM00087509,SAN RAFAEL AERO,-34.5908,-68.4017,748,202305,250,NA,NA,M,118263
ARM00087532,GENERAL PICO AERO,-35.6881,-63.7594,145,202305,310,NA,NA,M,118264
ARM00087548,JUNIN AERO,-34.5525,-60.9314,81,202305,920,NA,NA,M,118268
ARM00087576,EZEIZA AERO,-34.818600000000004,-58.5422,20,202305,1550,NA,NA,M,118272
ARM00087593,LA PLATA AERO,-34.9661,-57.8961,19,202305,1470,NA,NA,M,118275
ARM00087640,BOLIVAR AERO,-36.1864,-61.0728,94,202305,680,NA,NA,M,118280
ARM00087641,AZUL AERO,-36.8333,-59.8833,147,202305,780,NA,NA,M,118281
ARM00087645,TANDIL AERO,-37.2411,-59.2333,175,202305,760,NA,NA,M,118284
ARM00087648,DOLORES AERO,-36.35,-57.7333,9,202305,1850,NA,NA,M,118285
ARM00087688,TRES ARROYOS,-38.3594,-60.2844,115,202305,820,NA,NA,M,118287
ARM00087765,BARILOCHE AERO,-41.1475,-71.1642,840,202305,760,NA,NA,M,118296
ARM00087774,MAQUINCHAO,-41.2439,-68.7064,888,202305,30,NA,NA,M,118297
ARM00087784,SAN ANTONIO OESTE AERO,-40.7572,-65.0308,20,202305,10,NA,NA,M,118298
ARM00087791,VIEDMA AERO,-40.8633,-63.0069,7,202305,0,NA,NA,M,118299
ARM00087852,PERITO MORENO AERO,-46.5386,-70.985,429,202305,60,NA,NA,M,118305
ARM00087896,PUERTO DESEADO AERO,-47.7336,-65.9078,80,202305,50,NA,NA,M,118308
ARM00087904,EL CALAFATE AERO,-50.2844,-72.0514,204,202305,90,NA,NA,M,118310
ARM00087909,SAN JULIAN AERO,-49.3083,-67.8031,62,202305,100,NA,NA,M,118311
ARM00087934,RIO GRANDE B.A.,-53.3803,-67.7586,22,202305,290,NA,NA,M,118314
ARM00087938,USHUAIA AERO,-54.84,-68.3033,57,202305,150,NA,NA,M,118315
ARMLP087007,LA QUIACA OBSERVATORIO,-22.1,-65.6,3459,202305,0,NA,NA,M,118209
ARMLP087078,LAS LOMITAS,-24.7025,-60.5942,130,202305,1330,NA,NA,M,118216
ARMLP087097,IGUAZU AERO,-25.7333,-54.4667,270,202305,1060,NA,NA,M,118217
ARMLP087129,SANTIAGO DEL ESTERO AERO.,-27.7547,-64.2997,199,202305,160,NA,NA,M,118219
ARMLP087155,RESISTENCIA AERO,-27.4389,-59.0461,52,202305,1370,NA,NA,M,118222
ARMLP087163,B.DE IRIGOYEN AERO,-26.2781,-53.6711,815,202305,1740,NA,NA,M,118224
ARMLP087217,LA RIOJA AERO.,-29.3825,-66.7933,429,202305,110,NA,NA,M,118228
ARMLP087257,CERES AERO,-29.8756,-61.9361,88,202305,830,NA,NA,M,118231
ARMLP087270,RECONQUISTA AERO,-29.205,-59.6933,53,202305,180,NA,NA,M,118232
ARMLP087305,JACHAL,-30.2294,-68.7389,1175,202305,30,NA,NA,M,118235
ARMLP087344,CORDOBA AERO,-31.2967,-64.2119,474,202305,190,NA,NA,M,118241
ARMLP087345,CORDOBA OBSERVATORIO,-31.4208,-64.1983,426,202305,260,NA,NA,M,118242
ARMLP087374,PARANA AERO,-31.7903,-60.4842,78,202305,2460,NA,NA,M,118246
ARMLP087393,MONTE CASEROS AERO,-30.2617,-57.6389,54,202305,660,NA,NA,M,118247
ARMLP087534,LABOULAYE AERO,-34.1278,-63.3675,137,202305,300,NA,NA,M,118265
ARMLP087623,SANTA ROSA AERO,-36.5931,-64.28,191,202305,190,NA,NA,M,118278
ARMLP087692,MAR DEL PLATA AERO,-37.9322,-57.5814,21,202305,890,NA,NA,M,118289
ARMLP087803,ESQUEL AERO,-42.9058,-71.145,797,202305,470,NA,NA,M,118301
ARMLP087828,TRELEW AERO,-43.2089,-65.2822,43,202305,0,NA,NA,M,118304
ARMLP087860,COMODORO RIVADAVIA AERO,-45.7922,-67.4619,46,202305,40,NA,NA,M,118306
ARMLP087925,RIO GALLEGOS AERO,-51.6117,-69.3081,19,202305,110,NA,NA,M,118313
ASM00094299,WILLIS ISLAND,-16.288,149.965,9,202305,268,NA,NA,S,000334
ASM00094995,LORD HOWE ISLAND AERO,-31.542,159.079,7,202305,938,C,NA,S,000336
ASM00094998,MACQUARIE ISLAND,-54.499,158.937,8.3,202305,1023,A,NA,S,000337
ASN00001006,WYNDHAM AERO,-15.51,128.1503,3.8,202305,0,D,NA,D,000343
ASN00001007,TROUGHTON ISLAND,-13.7542,126.1485,6,202305,0,E,NA,D,000344
ASN00001019,KALUMBURU,-14.2964,126.6453,23,202305,0,C,NA,S,000355
ASN00001020,TRUSCOTT,-14.09,126.3867,51,202305,0,E,NA,D,000356
ASN00002009,GIBB RIVER,-16.4203,126.4411,488,202305,0,D,NA,D,000378
ASN00002012,HALLS CREEK AIRPORT,-18.2292,127.6636,422,202305,0,A,NA,S,000381
ASN00002021,MOUNT AMHURST,-18.3869,126.9892,300,202305,0,D,NA,D,000390
ASN00002022,MOUNT WINIFRED,-18.016,126.3033,180,202305,2,D,NA,D,000391
ASN00002030,YULMBU,-17.2964,126.915,450,202305,0,D,NA,D,000399
ASN00002032,WARMUN,-17.0156,128.2175,203,202305,0,D,NA,D,000401
ASN00002036,OLD MORNINGTON HOMESTEAD,-17.3922,126.2306,280,202305,0,D,NA,D,000405
ASN00002043,MOUNT KRAUSS,-18.3368,126.1243,160,202305,0,D,NA,D,000412
ASN00002053,LANSDOWNE,-17.6133,126.7442,400,202305,0,D,NA,D,000421
ASN00002056,KUNUNURRA AERO,-15.7814,128.71,44,202305,0,D,NA,D,000423
ASN00003003,BROOME AIRPORT,-17.9475,122.2353,7.4,202305,0,NA,NA,S,000442
ASN00003032,DERBY AERO,-17.3706,123.6611,6.2,202305,0,E,NA,D,000471
ASN00003051,MOUNT BARNETT,-16.7372,125.9086,401,202305,4,D,NA,D,000488
ASN00003066,PORT SMITH,-18.5175,121.8072,10,202305,0,E,NA,D,000503
ASN00003080,CURTIN AERO,-17.5736,123.8217,77.5,202305,0,D,NA,D,000514
ASN00003093,FITZROY CROSSING AERO,-18.1814,125.5619,114.5,202305,0,D,NA,D,000527
ASN00004019,MANDORA,-19.7419,120.8436,7.5,202305,6,E,NA,D,000554
ASN00004032,PORT HEDLAND AIRPORT,-20.3725,118.6317,6.4,202305,0,C,NA,S,000566
ASN00004090,ROEBOURNE AERO,-20.7594,117.1583,10.7,202305,0,E,NA,D,000621
ASN00004106,MARBLE BAR,-21.1756,119.7497,182.3,202305,0,D,NA,D,000632
ASN00005007,LEARMONTH AIRPORT,-22.2406,114.0967,5,202305,2,B,NA,S,000640
ASN00005051,EXMOUTH TOWN,-21.9303,114.1256,13,202305,0,D,NA,D,000684
ASN00005084,THEVENARD ISLAND,-21.4606,115.0197,5,202305,0,E,NA,D,000710
ASN00005094,BARROW ISLAND AIRPORT,-20.875,115.4056,6.4,202305,0,D,NA,D,000718
ASN00006011,CARNARVON AIRPORT,-24.8878,113.67,4,202305,350,NA,NA,S,000731
ASN00006044,DENHAM,-25.9261,113.5319,9,202305,10,D,NA,D,000764
ASN00006099,MURCHISON,-26.8936,115.9561,287,202305,24,D,NA,D,000818
ASN00006105,SHARK BAY AIRPORT,-25.8925,113.5772,33.8,202305,4,D,NA,D,000823
ASN00007008,BRYAH,-25.5067,118.7933,550,202305,0,D,NA,D,000834
ASN00007045,MEEKATHARRA AIRPORT,-26.6136,118.5372,517,202305,0,E,NA,D,000871
ASN00007139,PAYNES FIND,-29.2708,117.6836,339,202305,32,D,NA,D,000963
ASN00007176,NEWMAN AERO,-23.4169,119.7989,524,202305,0,NA,NA,S,000999
ASN00007185,PARABURDOO AERO,-23.1725,117.7494,423.7,202305,0,D,NA,D,001006
ASN00007600,MOUNT MAGNET AERO,-28.1156,117.8425,407,202305,56,D,NA,D,001025
ASN00008039,DALWALLINU COMPARISON,-30.2772,116.6619,335,202305,243,NA,NA,S,001065
ASN00008050,GERALDTON TOWN,-28.7769,114.605,3,202305,322,E,NA,D,001076
ASN00008051,GERALDTON AIRPORT,-28.7953,114.6975,33,202305,308,C,NA,S,001077
ASN00008095,MULLEWA,-28.5367,115.5142,268,202305,130,D,NA,D,001121
ASN00008137,WONGAN HILLS,-30.8917,116.7186,283,202305,140,D,NA,D,001163
ASN00008202,BINDI BINDI NORTH,-30.6219,116.3794,300,202305,138,D,NA,D,001227
ASN00008237,TENINDEWA,-28.6857,115.2806,260,202305,156,D,NA,D,001261
ASN00008251,KALBARRI,-27.7119,114.165,6,202305,99,D,NA,D,001273
ASN00008296,MORAWA AIRPORT,-29.2039,116.0247,271.4,202305,128,D,NA,D,001315
ASN00008297,DALWALLINU,-30.2761,116.6714,324.5,202305,96,D,NA,D,001316
ASN00008298,TIBRADDEN,-28.7597,114.937,265,202305,130,D,NA,D,001317
ASN00008299,ARRADALE,-29.1103,115.3173,270,202305,128,D,NA,D,001318
ASN00008300,TABLETOP,-29.0692,115.0915,240,202305,176,D,NA,D,001319
ASN00008304,MOASCAR,-28.9571,114.9492,254,202305,164,D,NA,D,001321
ASN00008307,COOLANGATTA ALERT,-28.89,115.4397,260,202305,150,D,NA,D,001324
ASN00008308,TARDUN HILL,-28.8,115.76,340,202305,134,D,NA,D,001325
ASN00008309,BELLENDAINE,-29.3,115.6597,240,202305,140,D,NA,D,001326
ASN00008310,SOUTH HOLMWOOD ALERT,-29.0291,115.5548,260,202305,190,D,NA,D,001327
ASN00009000,ARALUEN,-32.1247,116.1025,130,202305,368,E,NA,D,001331
ASN00009021,PERTH AIRPORT,-31.9275,115.9764,15.4,202305,281,A,NA,S,001352
ASN00009023,JARRAHDALE,-32.3342,116.0755,240,202305,316,E,NA,D,001354
ASN00009037,BADGINGARRA RESEARCH STN,-30.3381,115.5394,275,202305,340,D,NA,D,001368
ASN00009039,SERPENTINE,-32.3536,116.005,120,202305,216,D,NA,D,001370
ASN00009053,PEARCE RAAF,-31.6669,116.0189,40,202305,210,D,NA,D,001383
ASN00009066,GIDGEGANNUP,-31.7908,116.1975,290,202305,252,D,NA,D,001396
ASN00009111,KARNET,-32.44,116.0744,286,202305,132,E,NA,D,001436
ASN00009131,JURIEN BAY,-30.3081,115.0311,1.6,202305,290,D,NA,D,001454
ASN00009172,JANDAKOT AERO,-32.1011,115.8794,30,202305,402,D,NA,D,001484
ASN00009178,GINGIN AERO,-31.4628,115.8642,73,202305,362,D,NA,D,001490
ASN00009193,ROTTNEST ISLAND,-32.0069,115.5022,43.1,202305,148,NA,NA,S,001504
ASN00009225,PERTH METRO,-31.9192,115.8728,24.9,202305,264,D,NA,D,001533
ASN00009240,BICKLEY,-32.0056,116.1364,384,202305,416,D,NA,D,001546
ASN00009248,MOONDAH BROOK,-31.332,115.9513,113,202305,296,D,NA,D,001553
ASN00009256,GARDEN ISLAND HSF,-32.2433,115.6839,6,202305,212,E,NA,D,001559
ASN00009258,ANKETELL,-32.2156,115.8758,18,202305,290,D,NA,D,001561
ASN00009260,MOUNT SOLUS,-32.4697,116.2143,574,202305,224,D,NA,D,001563
ASN00009500,ALBANY,-35.0289,117.8808,3,202305,313,E,NA,D,001570
ASN00009515,BUSSELTON SHIRE,-33.6611,115.3456,4,202305,215,E,NA,D,001585
ASN00009518,CAPE LEEUWIN,-34.3728,115.1358,13,202305,316,NA,NA,S,001588
ASN00009519,CAPE NATURALISTE,-33.5372,115.0189,109,202305,234,D,NA,D,001589
ASN00009538,DWELLINGUP,-32.7103,116.0594,267,202305,368,D,NA,D,001608
ASN00009542,ESPERANCE AERO,-33.6825,121.8275,142,202305,300,D,NA,D,001612
ASN00009573,MANJIMUP,-34.2508,116.145,286.7,202305,368,D,NA,D,001642
ASN00009603,BUSSELTON AERO,-33.6858,115.4008,16.3,202305,208,E,NA,D,001672
ASN00009617,BRIDGETOWN,-33.9486,116.1311,178.7,202305,204,D,NA,D,001686
ASN00009619,WILGARRUP,-34.1519,116.2042,240,202305,196,E,NA,D,001688
ASN00009628,COLLIE,-33.36,116.1467,204,202305,271,E,NA,D,001697
ASN00009636,COWARAMUP,-33.8358,115.07470000000001,120,202305,452,E,NA,D,001705
ASN00009741,ALBANY AIRPORT,-34.9414,117.8022,68,202305,235,NA,NA,S,001803
ASN00009769,CULFORD,-32.5698,116.4385,335,202305,132,D,NA,D,001822
ASN00009776,ASTON DOWNS ALERT,-33.7931,115.3189,80,202305,238,D,NA,D,001828
ASN00009789,ESPERANCE,-33.83,121.8925,25,202305,170,NA,NA,S,001838
ASN00009813,MOUNT HOWICK,-33.7297,122.755,110,202305,138,E,NA,D,001858
ASN00009842,JARRAHWOOD,-33.7964,115.6658,130,202305,228,E,NA,D,001883
ASN00009871,WINDY HARBOUR,-34.8361,116.0308,4.5,202305,642,D,NA,D,001912
ASN00009877,LUDLOW,-33.6033,115.4983,15,202305,190,D,NA,D,001918
ASN00009923,WORSLEY DOWNS,-33.3169,115.9892,240,202305,352,E,NA,D,001956
ASN00009936,HUNTLY,-32.6239,116.0603,320,202305,352,D,NA,D,001969
ASN00009961,HOPETOUN NORTH,-33.9306,120.1283,26,202305,56,D,NA,D,001991
ASN00009964,ROCKY GULLY,-34.5714,117.0106,250,202305,276,D,NA,D,001994
ASN00009965,BUNBURY,-33.3567,115.6447,5.2,202305,288,D,NA,D,001995
ASN00009971,ACTON PARK,-33.7844,115.4075,120,202305,214,D,NA,D,002000
ASN00009976,PINJARRA SOUTH,-32.6453,115.8644,13,202305,160,D,NA,D,002005
ASN00009977,MANDURAH,-32.5219,115.7119,3,202305,176,D,NA,D,002006
ASN00009978,JINDONG,-33.7563,115.2096,42,202305,238,D,NA,D,002007
ASN00009982,HENTY BROOK,-33.3878,115.8538,240,202305,294,D,NA,D,002011
ASN00009987,PAYNEDALE ALERT,-33.6414,115.7028,80,202305,194,D,NA,D,002014
ASN00009988,HAPPY VALLEY,-33.6808,115.6242,100,202305,166,D,NA,D,002015
ASN00009989,THOMSON BROOK,-33.6458,115.9553,260,202305,240,D,NA,D,002016
ASN00009990,BOYANUP NORTH,-33.4775,115.7393,40,202305,246,D,NA,D,002017
ASN00009991,DONNYBROOK EAST,-33.5711,115.8383,120,202305,186,D,NA,D,002018
ASN00009992,CAPEL NORTH,-33.5435,115.5509,20,202305,166,D,NA,D,002019
ASN00009994,COLLIE EAST,-33.3608,116.1717,200,202305,202,D,NA,D,002020
ASN00009997,RAVENSCLIFFE ALERT,-33.7647,115.8431,200,202305,212,D,NA,D,002023
ASN00009998,NORTH WALPOLE,-34.9469,116.7222,73,202305,482,D,NA,D,002024
ASN00010000,AMERY ACRES,-31.1675,117.0736,340,202305,138,D,NA,D,002025
ASN00010007,BENCUBBIN,-30.8081,117.8603,359,202305,60,E,NA,D,002032
ASN00010031,YORKRAKINE TM,-31.3742,117.5861,300,202305,118,D,NA,D,002055
ASN00010043,CALJIE,-31.7661,116.9167,219,202305,206,D,NA,D,002067
ASN00010064,BOLGART BIN,-31.2747,116.5075,240,202305,206,D,NA,D,002088
ASN00010092,MERREDIN,-31.4756,118.2789,315,202305,115,D,NA,D,002115
ASN00010111,NORTHAM,-31.6508,116.6586,170,202305,215,D,NA,D,002134
ASN00010230,WAEEL,-31.65,117.1,-999.9,202305,186,D,NA,D,002250
ASN00010286,CUNDERDIN AIRFIELD,-31.6219,117.2217,216.7,202305,180,NA,NA,S,002295
ASN00010307,QUADNEY,-31.7936,116.6278,310,202305,206,D,NA,D,002316
ASN00010308,TOODYAY EAST,-31.55,116.4867,150,202305,24,D,NA,D,002317
ASN00010310,WERRIBEE,-31.7647,116.3464,295,202305,226,D,NA,D,002318
ASN00010311,YORK,-31.8997,116.765,179,202305,204,D,NA,D,002319
ASN00010511,WICKEPIN SOUTH,-32.8022,117.5025,380,202305,54,D,NA,D,002331
ASN00010524,BROOKTON,-32.3725,117.0072,250,202305,111,D,NA,D,002343
ASN00010527,BULYEE,-32.3756,117.5128,250,202305,54,D,NA,D,002346
ASN00010536,CORRIGIN,-32.3292,117.8733,295,202305,94,E,NA,D,002354
ASN00010546,DUMBLEYUNG,-33.3142,117.74,270,202305,88,D,NA,D,002364
ASN00010556,COONDEE,-32.4797,116.8167,262,202305,92,D,NA,D,002374
ASN00010568,HYDEN,-32.4419,118.8983,299,202305,52,E,NA,D,002386
ASN00010582,KOJONUP,-33.83,117.159,305,202305,132,D,NA,D,002400
ASN00010584,KULIN,-32.6719,118.1547,310,202305,66,E,NA,D,002402
ASN00010614,"NARROGIN",-32.9342,117.1797,338,202305,140,D,NA,D,002432
ASN00010626,PINGELLY,-32.5336,117.0831,297,202305,101,E,NA,D,002444
ASN00010647,WAGIN,-33.3075,117.3403,256,202305,116,E,NA,D,002462
ASN00010692,NEWDEGATE RESEARCH STATION,-33.1131,118.84,320,202305,86,D,NA,D,002505
ASN00010908,YANGEDINE,-32.0294,116.8742,260,202305,138,D,NA,D,002711
ASN00010911,LAKE GRACE,-33.1006,118.4647,286,202305,56,D,NA,D,002714
ASN00010912,YEALERING EAST,-32.5878,117.6408,280,202305,100,D,NA,D,002715
ASN00010916,KATANNING,-33.6856,117.6064,320,202305,108,D,NA,D,002719
ASN00010917,WANDERING,-32.6722,116.6706,275,202305,146,A,NA,S,002720
ASN00011003,EUCLA,-31.6797,128.8792,93.1,202305,112,NA,NA,S,002724
ASN00011019,EYRE,-32.2464,126.3008,5.6,202305,164,D,NA,D,002740
ASN00011052,FORREST,-30.8453,128.1092,159,202305,6,NA,NA,S,002768
ASN00012009,NORSEMAN AERO,-32.2147,121.7547,262.5,202305,14,D,NA,D,002779
ASN00012038,KALGOORLIE-BOULDER AIRPORT,-30.7847,121.4533,365.3,202305,28,NA,NA,S,002807
ASN00012044,MUNGLINUP WEST,-33.5547,120.69970000000001,220,202305,96,D,NA,D,002813
ASN00012071,SALMON GUMS RES.STN.,-32.9869,121.6239,249,202305,66,D,NA,D,002840
ASN00012239,BULGA DOWNS,-28.4967,119.7436,438.5,202305,12,D,NA,D,002994
ASN00012241,LEONORA AERO,-28.8789,121.3186,370,202305,10,D,NA,D,002996
ASN00012305,LAVERTON AERO,-28.6133,122.4236,464.3,202305,2,D,NA,D,003049
ASN00012314,LEINSTER AERO,-27.8386,120.7031,497,202305,2,D,NA,D,003058
ASN00012320,SOUTHERN CROSS AIRFIELD,-31.2353,119.3564,347.4,202305,48,D,NA,D,003063
ASN00013011,WARBURTON AIRFIELD,-26.1317,126.5839,459,202305,0,D,NA,D,003076
ASN00013015,CARNEGIE,-25.7964,122.9753,448,202305,0,D,NA,D,003080
ASN00013017,GILES METEOROLOGICAL OFFICE,-25.0341,128.301,598,202305,0,NA,NA,S,003082
ASN00013030,TELFER AERO,-21.7125,122.2281,291.9,202305,0,D,NA,D,003095
ASN00014015,DARWIN AIRPORT,-12.4239,130.8925,30.4,202305,0,D,NA,D,003119
ASN00014040,DARWIN AIRPORT COMPARISON,-12.4227,130.8844,30,202305,0,A,NA,S,003133
ASN00014041,MIDDLE POINT AWS,-12.605,131.2988,14.1,202305,0,D,NA,D,003134
ASN00014055,UPPER ADELAIDE RIVER,-13.481,131.1173,206,202305,6,D,NA,D,003143
ASN00014059,FOELSCHE HEADLAND,-14.0829,131.8099,203,202305,0,D,NA,D,003146
ASN00014062,EDITH FALLS RIDGE,-14.1435,132.1925,242,202305,0,D,NA,D,003149
ASN00014142,PIRLANGIMPI,-11.4022,130.4217,18.3,202305,8,D,NA,D,003193
ASN00014144,MARRARA,-12.3962,130.8785,16,202305,0,D,NA,D,003195
ASN00014198,JABIRU AIRPORT,-12.6594,132.8939,26.5,202305,416,D,NA,D,003241
ASN00014224,WANDIE CREEK,-13.8062,132.197,179,202305,0,D,NA,D,003263
ASN00014246,LEANYER,-12.3784,130.9057,10,202305,0,D,NA,D,003282
ASN00014272,BATCHELOR AERO,-13.0545,131.0252,104,202305,0,D,NA,D,003307
ASN00014274,MCCLUER ISLAND,-11.0468,132.9791,1.4,202305,212,D,NA,D,003308
ASN00014277,DUM IN MIRRIE AWS,-12.635,130.3725,3.5,202305,0,D,NA,D,003311
ASN00014285,DARWIN HOSPITAL,-12.3551,130.8857,20,202305,0,E,NA,D,003319
ASN00014404,MILINGIMBI AWS,-12.0931,134.8919,15,202305,132,D,NA,D,003329
ASN00014405,MANINGRIDA AERO,-12.0569,134.2339,28.1,202305,102,D,NA,D,003330
ASN00014508,GOVE AIRPORT,-12.2741,136.8203,51.6,202305,677,NA,NA,S,003340
ASN00014517,NGAYAWILI,-11.9971,135.5726,8.1,202305,66,D,NA,D,003349
ASN00014518,GROOTE EYLANDT AIRPORT AWS,-13.9747,136.4631,13.7,202305,6,D,NA,D,003350
ASN00014626,DALY WATERS AWS,-16.2636,133.3782,209.8,202305,0,D,NA,D,003377
ASN00014627,BULMAN AWS,-13.6714,134.3414,103.4,202305,0,D,NA,D,003378
ASN00014648,WEST WATERHOUSE,-14.134,133.1094,322,202305,0,D,NA,D,003398
ASN00014650,CAVE CREEK STATION,-14.9147,133.127,125,202305,0,E,NA,D,003400
ASN00014651,SNOWDROP CREEK,-13.8269,133.3277,384,202305,4,D,NA,D,003401
ASN00014652,MARANBOY HILL,-14.5264,132.8006,232,202305,0,D,NA,D,003402
ASN00014653,CONWAYS,-14.2573,133.5942,135,202305,0,D,NA,D,003403
ASN00014654,CENTRAL WATERHOUSE,-14.3295,133.1176,221,202305,0,D,NA,D,003404
ASN00014704,MCARTHUR RIVER MINE,-16.4423,136.076,40,202305,0,D,NA,D,003409
ASN00014723,BORROLOOLA,-16.0757,136.3041,16.1,202305,0,D,NA,D,003427
ASN00014729,BING BONG PORT,-15.6293,136.3881,4,202305,0,E,NA,D,003432
ASN00014730,UPPER WATERHOUSE RIVER,-14.1055,133.3422,262,202305,0,D,NA,D,003433
ASN00014806,BIRRIMBA,-16.4155,132.0857,209,202305,0,D,NA,D,003440
ASN00014816,OLD DELAMERE,-15.7372,131.5345,102,202305,0,D,NA,D,003449
ASN00014828,SHOEING TOOL BORE,-16.3896,131.5573,179,202305,0,D,NA,D,003460
ASN00014829,LAJAMANU,-18.3325,130.6358,315.6,202305,0,E,NA,D,003461
ASN00014830,CATTLE CREEK,-17.5966,131.5444,189,202305,0,D,NA,D,003462
ASN00014854,SUNSHINE BORE,-17.8581,130.8841,250,202305,0,D,NA,D,003482
ASN00014866,UPPER VICTORIA RIVER,-17.6129,130.0713,406,202305,0,D,NA,D,003492
ASN00014867,UPPER WICKHAM RIVER,-16.9567,130.5675,242,202305,0,D,NA,D,003493
ASN00014906,FISH RIVER,-14.2,130.9,87,202305,16,D,NA,D,003501
ASN00014909,CENTRAL ARNHEM PLATEAU,-13.3275,133.0861,416,202305,0,D,NA,D,003504
ASN00014932,TINDAL RAAF,-14.5229,132.3826,133.6,202305,0,C,NA,S,003524
ASN00014947,UPPER FERGUSSON RIVER,-14.0106,132.2084,186,202305,0,D,NA,D,003538
ASN00014948,PORT KEATS AERO,-14.2495,129.5282,28,202305,0,D,NA,D,003539
ASN00014949,DELAMERE WEAPONS RANGE,-15.7442,131.9182,221,202305,0,E,NA,D,003540
ASN00014950,MOUNT FELIX,-14.1243,132.6378,292,202305,0,D,NA,D,003541
ASN00014962,YEURALBA RIDGE,-14.254,132.7357,282,202305,6,D,NA,D,003551
ASN00014965,UPPER SEVENTEEN MILE CREEK,-14.1882,132.3961,220,202305,0,D,NA,D,003554
ASN00014966,NITMILUK RIDGE,-14.3148,132.4248,212,202305,0,D,NA,D,003555
ASN00014970,FANNY CREEK,-14.1084,132.9004,218,202305,0,D,NA,D,003558
ASN00015131,ELLIOTT,-17.5521,133.5407,220,202305,0,D,NA,D,003594
ASN00015135,TENNANT CREEK AIRPORT,-19.6423,134.1833,375.7,202305,0,C,NA,S,003598
ASN00015511,CURTIN SPRINGS,-25.3139,131.7571,489.6,202305,0,D,NA,D,003624
ASN00015531,HERMANNSBURG,-23.9409,132.7824,565,202305,10,D,NA,D,003644
ASN00015548,RABBIT FLAT,-20.1883,130.0161,340,202305,0,D,NA,S,003661
ASN00015590,ALICE SPRINGS AIRPORT,-23.7951,133.889,546,202305,14,A,NA,S,003699
ASN00015594,ARLTUNGA,-23.4564,134.6849,661,202305,14,D,NA,D,003703
ASN00015602,JERVOIS,-22.9494,136.1442,328,202305,2,E,NA,D,003711
ASN00015635,YULARA AERO,-25.1896,130.9737,492,202305,0,D,NA,D,003742
ASN00015643,TERRITORY GRAPE FARM,-22.4518,133.6377,565.6,202305,6,D,NA,D,003750
ASN00015652,WATARRKA,-24.2914,131.5488,614,202305,0,D,NA,D,003758
ASN00015664,WALUNGURRU,-23.27,129.38,454.3,202305,0,D,NA,D,003769
ASN00016001,WOOMERA AERODROME,-31.1558,136.8054,166.6,202305,17,A,NA,S,003781
ASN00016024,TARCOOLA (LAKE EVERARD),-31.7397,135.1722,200,202305,38,E,NA,D,003803
ASN00016055,YARDEA,-32.3792,135.5247,260,202305,84,E,NA,D,003833
ASN00016056,YUDNAPINNA,-32.1232,137.1505,128,202305,56,E,NA,D,003834
ASN00016065,ANDAMOOKA,-30.449,137.1692,76,202305,0,D,NA,D,003843
ASN00016090,COOBER PEDY AIRPORT,-29.0347,134.7222,225,202305,0,D,NA,D,003863
ASN00016096,ROXBY DOWNS (OLYMPIC DAM AEROD,-30.4829,136.8772,98.5,202305,0,D,NA,D,003869
ASN00016097,ERNABELLA (PUKATJA),-26.2635,132.1771,703.2,202305,0,D,NA,D,003870
ASN00016098,TARCOOLA AERO,-30.7051,134.5786,123,202305,6,D,NA,S,003871
ASN00017014,BLINMAN,-31.0939,138.6786,615.7,202305,112,E,NA,D,003888
ASN00017043,OODNADATTA AIRPORT,-27.5553,135.4456,116.5,202305,0,NA,NA,S,003917
ASN00017055,MARREE (WITCHELINA),-30.0213,138.0424,165,202305,0,E,NA,D,003929
ASN00017098,PARACHILNA (MOTPENA),-31.1881,138.2785,85,202305,12,E,NA,D,003971
ASN00017099,ARKAROOLA,-30.311,139.3357,318,202305,0,D,NA,D,003972
ASN00017110,LEIGH CREEK AIRPORT,-30.5963,138.4219,258.8,202305,22,D,NA,D,003981
ASN00017119,BELTANA ROADHOUSE,-30.8406,138.3224,180,202305,20,E,NA,D,003989
ASN00017123,MOOMBA AIRPORT,-28.0997,140.1956,37.8,202305,0,D,NA,D,003993
ASN00017126,MARREE AERO,-29.6587,138.0684,50,202305,0,D,NA,D,003996
ASN00018014,CLEVE,-33.7011,136.4937,193,202305,322,D,NA,D,004021
ASN00018019,COULTA,-34.3853,135.4697,75,202305,422,D,NA,D,004026
ASN00018022,COWELL,-33.6772,136.9116,12,202305,258,E,NA,D,004029
ASN00018040,KIMBA,-33.1414,136.4125,280,202305,140,D,NA,D,004047
ASN00018044,KYANCUTTA,-33.1332,135.5552,57,202305,96,D,NA,D,004051
ASN00018079,STREAKY BAY,-32.7963,134.2116,13,202305,238,D,NA,D,004086
ASN00018083,WUDINNA AERO,-33.043,135.4519,86.4,202305,166,E,NA,D,004090
ASN00018094,WIRRULLA,-32.4035,134.5323,79,202305,50,D,NA,D,004101
ASN00018099,YEELANNA,-34.1413,135.73,88,202305,274,D,NA,D,004106
ASN00018106,NULLARBOR,-31.4492,130.8976,64,202305,72,E,NA,D,004113
ASN00018113,WHARMINDA,-33.965,136.2472,63,202305,174,E,NA,D,004119
ASN00018115,NEPTUNE ISLAND,-35.3365,136.1174,32,202305,406,D,NA,D,004121
ASN00018116,CLEVE AERODROME,-33.7081,136.5026,175,202305,244,D,NA,D,004122
ASN00018120,WHYALLA AERO,-33.0539,137.5205,6.5,202305,48,E,NA,D,004126
ASN00018171,MOUNT HOPE (FAIRVIEW),-34.1361,135.3319,60,202305,352,D,NA,D,004177
ASN00018176,COWELL (WINTER SPRINGS),-33.3416,136.7518,281,202305,150,D,NA,D,004182
ASN00018188,COFFIN BAY,-34.6252,135.4725,12,202305,445,D,NA,D,004193
ASN00018190,BUCKLEBOO (KARINYA),-32.9004,136.1858,235,202305,82,E,NA,D,004195
ASN00018195,MINNIPA DPI,-32.8427,135.1515,165,202305,84,E,NA,D,004200
ASN00018201,PORT AUGUSTA AERO,-32.5091,137.7144,14,202305,42,D,NA,D,004204
ASN00019006,BOOLEROO CENTRE,-32.881,138.3519,403,202305,194,E,NA,D,004221
ASN00019008,BRUCE,-32.4618,138.2004,242,202305,56,E,NA,D,004223
ASN00019017,HAWKER,-31.8846,138.435,315,202305,70,D,NA,D,004232
ASN00019025,MORCHARD (THE ROCKS),-32.7654,138.5055,510,202305,228,E,NA,D,004240
ASN00019031,OODLA WIRRA,-32.8776,139.0578,521,202305,71,E,NA,D,004246
ASN00019037,PORT GERMEIN,-33.0216,138.0002,4,202305,185,D,NA,D,004252
ASN00019038,QUORN,-32.3538,138.0371,295,202305,210,D,NA,D,004253
ASN00019047,BOOLEROO CENTRE (WILLOWIE),-32.6923,138.3247,316,202305,127,D,NA,D,004262
ASN00019048,WILMINGTON,-32.6521,138.1003,330,202305,271,E,NA,D,004263
ASN00019052,WIRRABARA,-33.0338,138.2686,330,202305,386,D,NA,D,004267
ASN00019053,WIRRABARA FOREST,-33.0856,138.2211,380,202305,746,D,NA,D,004268
ASN00019114,MINBURRA,-32.4295,138.8922,332,202305,76,E,NA,D,004329
ASN00019115,MANNANARIE,-33.0188,138.6153,507,202305,252,D,NA,D,004330
ASN00020010,KOONAMORE,-32.0646,139.382,205,202305,28,E,NA,D,004344
ASN00020020,YUNTA (PANARAMITEE),-32.6416,139.6496,275,202305,42,E,NA,D,004354
ASN00020022,STURT VALE,-33.2458,140.0345,110,202305,66,E,NA,D,004356
ASN00020028,GLUEPOT RESERVE (GLUEPOT),-33.7622,140.1251,55,202305,90,D,NA,D,004362
ASN00020043,BRAEMAR,-33.1873,139.6209,180,202305,60,E,NA,D,004376
ASN00020062,YUNTA AIRSTRIP,-32.5707,139.5645,300,202305,38,D,NA,D,004393
ASN00021001,AUBURN,-34.026,138.6846,310,202305,362,E,NA,D,004395
ASN00021007,BRINKWORTH,-33.6947,138.4057,181,202305,292,D,NA,D,004401
ASN00021010,BRINKWORTH (BUNGAREE),-33.7459,138.5628,368,202305,546,D,NA,D,004404
ASN00021012,BUTE,-33.8682,138.01,113,202305,253,D,NA,D,004406
ASN00021016,CRYSTAL BROOK,-33.353,138.2057,105,202305,322,E,NA,D,004410
ASN00021019,FARRELL FLAT,-33.8315,138.7917,422,202305,324,D,NA,D,004413
ASN00021020,GEORGETOWN,-33.359,138.393,273,202305,476,D,NA,D,004414
ASN00021029,KOOLUNGA,-33.5867,138.3343,125,202305,236,E,NA,D,004423
ASN00021033,MINTARO,-33.9136,138.7195,418,202305,472,D,NA,D,004427
ASN00021059,HILLTOWN,-33.6867,138.6378,345,202305,310,E,NA,D,004453
ASN00021062,HALLETT (OLD CANOWIE),-33.3041,138.7553,575,202305,336,D,NA,D,004456
ASN00021063,PORT WAKEFIELD (PAREORA),-34.1564,138.1827,13,202305,432,D,NA,D,004457
ASN00021072,HUDDLESTON (WILLOW PONDS),-33.3265,138.3172,190,202305,316,D,NA,D,004466
ASN00021123,MINTARO (MARTINDALE),-33.9394,138.7166,405,202305,412,E,NA,D,004514
ASN00021127,SEVENHILL,-33.8828,138.6389,480,202305,464,D,NA,D,004518
ASN00021130,RHYNIE,-34.1002,138.631,205,202305,80,D,NA,D,004520
ASN00021131,CLARE HIGH SCHOOL,-33.8226,138.5933,395,202305,476,D,NA,D,004521
ASN00021133,SNOWTOWN (RAYVILLE PARK),-33.7676,138.2182,109.1,202305,301,A,NA,S,004522
ASN00022008,MAITLAND,-34.3745,137.6733,185,202305,404,E,NA,D,004533
ASN00022011,MOONTA,-34.0672,137.5925,20,202305,341,E,NA,D,004536
ASN00022012,PASKEVILLE,-34.0402,137.9004,145,202305,240,E,NA,D,004537
ASN00022014,PORT VINCENT,-34.7785,137.8579,6,202305,170,D,NA,D,004539
ASN00022017,STANSBURY,-34.9122,137.7977,5,202305,285,E,NA,D,004542
ASN00022018,WAROOKA,-34.9906,137.3995,53,202305,243,D,NA,D,004543
ASN00022020,WALLAROO,-33.9323,137.6282,10,202305,340,D,NA,D,004545
ASN00022031,MINLATON AERO,-34.748,137.5276,32,202305,242,E,NA,D,004556
ASN00022046,EDITHBURGH,-35.1121,137.7395,6,202305,302,D,NA,D,004570
ASN00022050,KADINA AWS,-33.9703,137.6628,41.1,202305,318,D,NA,D,004574
ASN00022054,PINE POINT (AMELIA DOWNS),-34.5552,137.8581,70,202305,182,D,NA,D,004577
ASN00022056,MAITLAND (CARINYA),-34.402,137.7185,202,202305,316,D,NA,D,004579
ASN00022803,CAPE WILLOUGHBY,-35.8426,138.1327,55,202305,496,D,NA,D,004583
ASN00022823,CAPE BORDA,-35.7549,136.5959,158,202305,694,NA,NA,S,004603
ASN00022835,PARNDANA (TURKEY LANE),-35.734,137.1212,201,202305,564,E,NA,D,004613
ASN00022841,KINGSCOTE AERO,-35.7114,137.5231,5,202305,300,D,NA,D,004618
ASN00023000,ADELAIDE WEST TERRACE,-34.9254,138.58690000000001,40,202305,584,D,NA,D,004620
ASN00023005,ADELAIDE (GLEN OSMOND),-34.9464,138.6519,128,202305,656,D,NA,D,004625
ASN00023013,PARAFIELD AIRPORT,-34.7977,138.6281,9.5,202305,472,D,NA,D,004633
ASN00023031,ADELAIDE (WAITE INSTITUTE),-34.9697,138.6331,115,202305,598,A,NA,S,004651
ASN00023034,ADELAIDE AIRPORT,-34.9524,138.5204,2,202305,460,D,NA,D,004654
ASN00023042,KENSINGTON UPPER (BURNSIDE),-34.9387,138.6607,-999.9,202305,556,D,NA,D,004662
ASN00023055,ADELAIDE AIRPORT ALERT,-34.9552,138.5356,6,202305,458,D,NA,D,004674
ASN00023076,PORT PARHAM,-34.432,138.2587,3,202305,438,D,NA,D,004692
ASN00023083,EDINBURGH RAAF,-34.7111,138.6222,16.5,202305,566,D,NA,D,004697
ASN00023096,ADELAIDE (HOPE VALLEY RESERVOI,-34.8564,138.6844,105,202305,658,E,NA,D,004707
ASN00023101,FELIXSTOW (PAYNEHAM),-34.8925,138.6422,45,202305,496,D,NA,D,004711
ASN00023105,BROWNHILL CREEK (SCOTCH COLLEG,-34.9808,138.621,92,202305,728,D,NA,D,004715
ASN00023107,GAWLER,-34.601,138.7359,40,202305,398,D,NA,D,004716
ASN00023108,LONGWOOD,-35.0495,138.7259,458,202305,578,D,NA,D,004717
ASN00023114,BEAUMONT,-34.9542,138.6586,225,202305,652,D,NA,D,004721
ASN00023115,ADELAIDE (KESWICK),-34.9473,138.5827,34,202305,532,D,NA,D,004722
ASN00023122,ROSEWORTHY AWS,-34.5106,138.6763,65,202305,442,D,NA,D,004727
ASN00023128,BALAKLAVA (DONALEEN),-34.2015,138.597,260,202305,306,D,NA,D,004730
ASN00023129,MALLALA (DOLAGHANS CROSSING),-34.4611,138.5581,48,202305,338,D,NA,D,004731
ASN00023133,GREENACRES ALERT,-34.8694,138.6359,66,202305,536,D,NA,D,004733
ASN00023134,KILBURN ALERT,-34.8516,138.5861,5,202305,512,D,NA,D,004734
ASN00023135,HAMLEY BRIDGE ALERT,-34.3741,138.6567,90,202305,352,D,NA,D,004735
ASN00023314,RIVERTON,-34.158,138.7483,265,202305,362,D,NA,D,004752
ASN00023318,TANUNDA,-34.5169,138.9598,250,202305,484,E,NA,D,004756
ASN00023348,SHEA-OAK LOG (GREENOCK CREEK),-34.5103,138.835,140,202305,336,D,NA,D,004786
ASN00023349,SADDLEWORTH,-34.0936,138.7952,336,202305,324,D,NA,D,004787
ASN00023357,NURIOOTPA,-34.4709,138.9991,270,202305,336,D,NA,D,004795
ASN00023370,STOCKPORT (CLIFTON),-34.3143,138.7293,160,202305,456,D,NA,D,004805
ASN00023372,BAROSSA VALLEY (DUCKPONDS CREE,-34.4534,139.0638,300,202305,354,D,NA,D,004807
ASN00023373,NURIOOTPA VITICULTURAL,-34.4761,139.0056,275,202305,583,NA,NA,S,004808
ASN00023374,HANSBOROUGH,-34.2523,139.0183,341,202305,280,D,NA,D,004809
ASN00023704,BELAIR (STATE FLORA NURSERY),-35.0077,138.6498,305,202305,910,E,NA,D,004817
ASN00023705,BIRDWOOD,-34.8148,138.9474,385,202305,556,D,NA,D,004818
ASN00023720,HAHNDORF,-35.0303,138.8148,341,202305,542,D,NA,D,004833
ASN00023721,HAPPY VALLEY RESERVOIR,-35.0608,138.5647,170,202305,880,D,NA,D,004834
ASN00023723,YANKALILLA (INMAN VALLEY),-35.4935,138.4575,100,202305,772,D,NA,D,004836
ASN00023725,KEYNETON,-34.5569,139.1338,381,202305,330,E,NA,D,004838
ASN00023731,CUDLEE CREEK (MILLBROOK),-34.8331,138.8215,315,202305,672,E,NA,D,004844
ASN00023732,ADELAIDE (MORPHETT VALE),-35.1351,138.5274,92,202305,520,D,NA,D,004845
ASN00023733,MOUNT BARKER,-35.0639,138.8509,360,202305,636,D,NA,D,004846
ASN00023734,MOUNT BOLD RESERVOIR,-35.1213,138.6769,251,202305,688,D,NA,D,004847
ASN00023752,WILLIAMSTOWN,-34.6717,138.8885,280,202305,527,D,NA,D,004865
ASN00023754,YANKALILLA,-35.458,138.35,40,202305,584,D,NA,D,004867
ASN00023783,MYPONGA RESERVOIR,-35.4012,138.4262,215,202305,920,D,NA,D,004895
ASN00023786,BIRDWOOD (MCVITTIES HILL),-34.8269,139.0086,484,202305,36,D,NA,D,004897
ASN00023787,BALHANNAH (KILLARA PARK),-35.0247,138.8578,412,202305,364,D,NA,D,004898
ASN00023799,PROSPECT HILL,-35.2183,138.7342,360,202305,786,D,NA,D,004909
ASN00023801,LENSWOOD RESEARCH CENTRE,-34.9482,138.8071,480,202305,682,D,NA,D,004911
ASN00023804,VICTOR HARBOR (ENCOUNTER BAY),-35.5544,138.5997,8,202305,634,D,NA,D,004914
ASN00023817,ALDGATE,-35.0221,138.7344,442,202305,868,D,NA,D,004927
ASN00023820,WILLIAMSTOWN (SOUTH PARA RESER,-34.6805,138.8561,280,202305,552,D,NA,D,004930
ASN00023825,GOOLWA BARRAGE,-35.5288,138.8067,1,202305,748,E,NA,D,004935
ASN00023842,MOUNT LOFTY,-34.9784,138.7088,685,202305,980,E,NA,D,004950
ASN00023846,BELAIR,-35.0028,138.6635,480,202305,872,D,NA,D,004954
ASN00023858,GOULD CREEK (HERMITAGE),-34.763,138.7765,350,202305,562,D,NA,D,004958
ASN00023860,LONG RIDGE (GREENHILL),-34.9499,138.6866,375,202305,714,D,NA,D,004959
ASN00023862,LOBETHAL TREATMENT WORKS,-34.9121,138.873,398,202305,428,D,NA,D,004960
ASN00023865,LENSWOOD (STRINGYBARK),-34.8944,138.8099,540,202305,682,D,NA,D,004961
ASN00023866,VERDUN,-35.0068,138.8033,315,202305,512,D,NA,D,004962
ASN00023867,ASHTON,-34.9342,138.7467,535,202305,1158,D,NA,D,004963
ASN00023873,CRAFERS WEST,-34.9913,138.6937,570,202305,1080,D,NA,D,004967
ASN00023875,PARAWA (SECOND VALLEY FOREST A,-35.5695,138.2864,341,202305,1066,D,NA,D,004969
ASN00023877,KERSBROOK,-34.7863,138.8651,350,202305,620,D,NA,D,004971
ASN00023878,MOUNT CRAWFORD (MT CRAWFORD AW,-34.7253,138.9273,525,202305,688,D,NA,D,004972
ASN00023879,CUDLEE CREEK (O'DEAS ROAD),-34.8476,138.8751,492,202305,656,D,NA,D,004973
ASN00023881,CROMER ROAD,-34.7742,139.0062,498,202305,618,D,NA,D,004975
ASN00023882,LOBETHAL (MAIDMENT ROAD),-34.8713,138.9058,76,202305,574,D,NA,D,004976
ASN00023887,KUITPO FOREST RESERVE,-35.1712,138.6783,365,202305,698,D,NA,D,004979
ASN00023890,BELAIR (ST JOHNS),-35.0012,138.62,310,202305,908,D,NA,D,004982
ASN00023891,PICCADILLY (WOODHOUSE),-34.9847,138.7404,441,202305,914,D,NA,D,004983
ASN00023892,MONTACUTE,-34.8856,138.7562,312,202305,664,D,NA,D,004984
ASN00023894,HINDMARSH ISLAND AWS,-35.5194,138.8177,11,202305,698,D,NA,D,004986
ASN00023896,ATHELSTONE (BLACK HILL),-34.8757,138.7103,200,202305,698,D,NA,D,004987
ASN00023905,URAIDLA (SUTTON CREEK),-34.9695,138.741,483,202305,870,D,NA,D,004994
ASN00023910,KANGARILLA (SADDLEBAGS HILL AL,-35.1296,138.6819,385,202305,670,D,NA,D,004997
ASN00023911,MYLOR (BIGGS FLAT ALERT),-35.0632,138.7636,312,202305,614,D,NA,D,004998
ASN00023916,BELLEVUE HEIGHTS ALERT,-35.0302,138.5878,210,202305,802,D,NA,D,005001
ASN00024008,LYRUP,-34.2579,140.6478,22,202305,210,E,NA,D,005010
ASN00024024,LOXTON RESEARCH CENTRE,-34.439,140.5978,30.1,202305,126,D,NA,D,005026
ASN00024025,BERRI,-34.2717,140.5964,50,202305,190,E,NA,D,005027
ASN00024501,AUSTRALIA PLAINS,-34.0954,139.1543,285,202305,172,D,NA,D,005048
ASN00024504,BOWER,-34.1233,139.3509,122,202305,44,D,NA,D,005051
ASN00024508,CALLINGTON,-35.125,139.0433,96,202305,394,D,NA,D,005055
ASN00024511,EUDUNDA,-34.1754,139.0847,415,202305,244,E,NA,D,005058
ASN00024521,MURRAY BRIDGE COMPARISON,-35.1234,139.2592,33,202305,284,D,NA,D,005068
ASN00024530,SEDAN (SANDLETON),-34.4584,139.3597,78,202305,68,D,NA,D,005077
ASN00024564,BLANCHETOWN LOCK 1,-34.3515,139.6153,11,202305,128,E,NA,D,005107
ASN00024573,TRURO,-34.4085,139.1274,344,202305,370,E,NA,D,005114
ASN00024575,KEYNETON (SEDAN HILL),-34.5444,139.193,462,202305,196,D,NA,D,005115
ASN00024578,MORGAN (BRENDA PARK STATION),-34.0647,139.6605,42,202305,90,E,NA,D,005118
ASN00024579,MT TORRENS,-34.8788,138.974,520,202305,488,D,NA,D,005119
ASN00024580,STRATHALBYN RACECOURSE,-35.2836,138.8934,58,202305,640,NA,NA,S,005120
ASN00024583,WOODSIDE (INVERBRACKIE ALERT),-34.9472,138.9261,447,202305,482,D,NA,D,005123
ASN00024584,MURRAY BRIDGE (PALLAMANA AEROD,-35.065,139.2273,45,202305,280,D,NA,D,005124
ASN00024585,SWAN REACH (PONDEROSA),-34.5079,139.5306,82,202305,52,D,NA,D,005125
ASN00024586,MOUNT MARY,-34.1308,139.4233,100,202305,42,D,NA,D,005126
ASN00025000,ALAWOONA,-34.7314,140.5036,68,202305,128,E,NA,D,005127
ASN00025002,PURNONG (CLAYPANS),-34.8276,139.6673,92,202305,190,E,NA,D,005129
ASN00025006,KAROONDA,-35.09,139.8972,72,202305,221,D,NA,D,005133
ASN00025014,PARUNA,-34.7169,140.7352,55,202305,154,D,NA,D,005141
ASN00025015,PINNAROO,-35.268,140.9075,101,202305,116,E,NA,D,005142
ASN00025502,COOKE PLAINS,-35.379,139.5617,6,202305,226,E,NA,D,005184
ASN00025507,KEITH,-36.098,140.3556,29,202305,357,D,NA,D,005189
ASN00025513,PEAKE,-35.3627,139.9503,23,202305,294,E,NA,D,005195
ASN00025557,KEITH (MUNKORA),-36.1058,140.3273,27,202305,370,E,NA,D,005236
ASN00025560,BORDERTOWN INDUSTRIAL ESTATE,-36.3098,140.74,85,202305,332,E,NA,D,005239
ASN00025562,LAMEROO (AUSTIN PLAINS),-35.3778,140.5378,110.1,202305,186,D,NA,D,005241
ASN00026007,FRANCES,-36.7124,140.9552,103,202305,248,E,NA,D,005249
ASN00026016,LUCINDALE POST OFFICE,-36.9731,140.3664,30,202305,360,E,NA,D,005258
ASN00026020,MOUNT GAMBIER POST OFFICE,-37.8333,140.7833,65,202305,588,D,NA,S,005262
ASN00026026,ROBE COMPARISON,-37.1628,139.756,3.3,202305,659,B,NA,S,005268
ASN00026091,COONAWARRA,-37.2906,140.8254,57,202305,346,D,NA,D,005331
ASN00026095,CAPE JAFFA (THE LIMESTONE),-36.9655,139.7164,17,202305,388,D,NA,D,005335
ASN00026098,"NANGWARRY FORESTRY SA DEPOT",-37.5422,140.8137,70,202305,470,E,NA,D,005338
ASN00026099,"NARACOORTE AERODROME",-36.9813,140.727,49.7,202305,336,E,NA,D,005339
ASN00026100,PADTHAWAY SOUTH,-36.6539,140.5212,35,202305,364,D,NA,D,005340
ASN00026105,ROBE AIRFIELD,-37.1776,139.8054,3,202305,522,D,NA,D,005345
ASN00026109,LAKE GEORGE (MAHARISHI VEDIC C,-37.3818,139.9454,5,202305,649,D,NA,D,005348
ASN00027015,MORETON TELEGRAPH STATION,-12.4536,142.6389,40,202305,123,D,NA,D,005367
ASN00027045,WEIPA AERO,-12.6778,141.9208,18,202305,32,E,NA,D,005395
ASN00027054,COCONUT ISLAND,-10.0511,143.0686,3.5,202305,2236,D,NA,D,005402
ASN00027058,HORN ISLAND,-10.5844,142.29,4,202305,792,D,NA,D,005406
ASN00027073,COEN AIRPORT,-13.7606,143.1183,159.3,202305,0,E,NA,D,005419
ASN00027075,SCHERGER RAAF,-12.6167,142.08690000000001,39.3,202305,394,D,NA,D,005421
ASN00028004,PALMERVILLE,-16.0008,144.0758,203.8,202305,2,D,NA,D,005426
ASN00028008,LOCKHART RIVER AIRPORT,-12.785,143.3047,18.5,202305,734,D,NA,D,005430
ASN00029034,MCKINLAY ROADHOUSE,-21.2719,141.2892,172,202305,0,D,NA,D,005492
ASN00029038,KOWANYAMA AIRPORT,-15.4818,141.7483,9.6,202305,0,D,NA,D,005496
ASN00029058,JULIA CREEK AIRPORT,-20.6672,141.7214,122.5,202305,0,D,NA,D,005516
ASN00029063,NORMANTON AIRPORT,-17.6872,141.0733,18.4,202305,2,D,NA,D,005521
ASN00029126,MOUNT ISA MINE,-20.7361,139.4817,381,202305,0,NA,NA,S,005579
ASN00029127,MOUNT ISA AERO,-20.6778,139.4875,340.3,202305,0,D,NA,D,005580
ASN00029139,SWEERS ISLAND,-17.1142,139.5981,4,202305,0,D,NA,D,005589
ASN00029141,CLONCURRY AIRPORT,-20.6664,140.505,186,202305,0,D,NA,D,005590
ASN00029166,RIVERSLEIGH TM,-18.9703,138.8033,115,202305,0,D,NA,D,005605
ASN00030022,HUGHENDEN AIRPORT,-20.8192,144.2333,316.4,202305,0,D,NA,D,005634
ASN00030124,GEORGETOWN AIRPORT,-18.3039,143.5306,301.8,202305,0,NA,NA,S,005731
ASN00030161,RICHMOND AIRPORT,-20.7017,143.1167,206.3,202305,0,E,NA,D,005763
ASN00031011,CAIRNS AERO,-16.8736,145.7458,2.2,202305,460,E,NA,D,005775
ASN00031036,KURANDA RAILWAY STATION,-16.8178,145.6383,340,202305,550,E,NA,D,005800
ASN00031037,LOW ISLES LIGHTHOUSE,-16.3842,145.5592,2.9,202305,316,D,NA,D,005801
ASN00031062,WHYANBEEL VALLEY,-16.3906,145.3511,6,202305,500,E,NA,D,005826
ASN00031104,MT SOPHIA,-17.1644,145.8783,5,202305,1460,E,NA,D,005865
ASN00031108,WALKAMIN RESEARCH STATION,-17.1347,145.4281,594,202305,290,E,NA,D,005869
ASN00031181,BARTLE VIEW ALERT,-17.545,145.7156,580,202305,1200,D,NA,D,005931
ASN00031182,GREENHAVEN ALERT,-17.5875,145.5997,860,202305,940,D,NA,D,005932
ASN00031183,MALANDA ALERT,-17.3594,145.5922,770,202305,530,D,NA,D,005933
ASN00031184,MCKELL ROAD ALERT,-17.4442,145.5094,1038,202305,670,D,NA,D,005934
ASN00031185,MILLAA MILLAA ALERT,-17.5175,145.6089,861,202305,760,D,NA,D,005935
ASN00031186,SUTTIES CREEK ALERT,-17.6803,145.6603,640,202305,840,D,NA,D,005936
ASN00031187,TOPAZ ALERT,-17.4694,145.7311,689,202305,2300,D,NA,D,005937
ASN00031188,MAREEBA TM,-17.0039,145.4281,381,202305,10,D,NA,D,005938
ASN00031191,MURRAY SPRINGS ALERT,-18.1494,145.4803,863,202305,210,D,NA,D,005941
ASN00031196,MT GARNET ALERT,-17.7047,145.1461,663,202305,10,D,NA,D,005944
ASN00031197,UPPER RUDD CREEK ALERT,-18.0394,144.8856,762,202305,0,D,NA,D,005945
ASN00031198,HERBERTON ALERT,-17.3769,145.3803,963,202305,70,D,NA,D,005946
ASN00031200,RAVENSHOE ALERT,-17.5908,145.5294,1080,202305,450,D,NA,D,005948
ASN00031205,COPPERLODE DAM ALERT,-16.9794,145.6747,447,202305,480,D,NA,D,005953
ASN00031209,COOKTOWN AIRPORT,-15.4461,145.1861,4.8,202305,244,D,NA,D,005957
ASN00031210,MAREEBA AIRPORT,-17.0672,145.4283,471.9,202305,28,D,NA,D,005958
ASN00031213,CAPE FLATTERY,-14.9672,145.3106,18.5,202305,292,D,NA,D,005960
ASN00032004,CARDWELL MARINE PDE,-18.2553,146.0197,4.5,202305,254,E,NA,D,005965
ASN00032009,BINGIL BAY,-17.835,146.0986,25,202305,2036,D,NA,D,005970
ASN00032020,MARCO STREET ALERT,-17.5556,145.9556,140,202305,1360,D,NA,D,005981
ASN00032037,SOUTH JOHNSTONE EXP STN,-17.6053,145.9972,18.3,202305,982,D,NA,D,005997
ASN00032040,TOWNSVILLE AERO,-19.2483,146.7661,4.3,202305,79,D,NA,S,006000
ASN00032043,UPPER STONE EXELBY,-18.721800000000002,145.9237,62,202305,58,D,NA,D,006003
ASN00032094,GAIRLOCH,-18.6156,146.1811,0.5,202305,60,E,NA,D,006052
ASN00032098,ROLLINGSTONE,-19.0506,146.4058,16,202305,81,D,NA,D,006056
ASN00032109,UPPER MURRAY TM,-18.1069,145.8053,22,202305,320,D,NA,D,006066
ASN00032117,ALLINGHAM  FORREST DRIVE,-18.6867,146.2969,10,202305,109,D,NA,D,006070
ASN00032152,TUNG OIL TM,-17.5475,145.9292,9,202305,1450,D,NA,D,006092
ASN00032155,CENTRAL MILL TM,-17.6094,145.9786,4,202305,1260,D,NA,D,006093
ASN00032160,CENTRAL MILL ALERT,-17.6089,145.9792,25,202305,1220,D,NA,D,006096
ASN00032161,CORSIS ALERT,-17.5967,145.9014,48,202305,1090,D,NA,D,006097
ASN00032162,CRAWFORDS LOOKOUT ALERT,-17.615,145.8011,338,202305,980,D,NA,D,006098
ASN00032163,INNISFAIL WHARF ALERT,-17.5236,146.0325,10,202305,1960,D,NA,D,006099
ASN00032164,MENAVALE ALERT,-17.6808,145.8878,134,202305,940,D,NA,D,006100
ASN00032165,NERADA ALERT,-17.5308,145.8464,43,202305,1340,D,NA,D,006101
ASN00032166,TUNG OIL ALERT,-17.5456,145.9325,22,202305,1590,D,NA,D,006102
ASN00032167,EURAMO TM,-17.9919,145.9425,10,202305,760,D,NA,D,006103
ASN00032169,GLENEAGLE ALERT,-18.1919,145.3325,556,202305,20,D,NA,D,006105
ASN00032170,"NASH'S CROSSING ALERT",-18.4125,145.7722,74,202305,270,D,NA,D,006106
ASN00032171,INGHAM PUMP STATION AL,-18.6347,146.1444,32,202305,130,D,NA,D,006107
ASN00032172,WALLAMAN ALERT,-18.4606,145.7383,685.8,202305,300,D,NA,D,006108
ASN00032173,PEACOCK SIDING ALERT,-18.6797,145.9961,38,202305,70,D,NA,D,006109
ASN00032174,ABERGOWRIE ALERT,-18.4889,145.9364,52,202305,120,D,NA,D,006110
ASN00032176,KIRRAMA ALERT,-18.1439,145.61,594,202305,140,D,NA,D,006112
ASN00032184,ZATTAS ALERT,-18.4506,145.8294,55,202305,220,D,NA,D,006117
ASN00032185,HALIFAX ALERT,-18.5789,146.2803,17,202305,270,D,NA,D,006118
ASN00032186,MICHAEL CREEK ALERT,-18.8478,145.9067,742,202305,70,D,NA,D,006119
ASN00032191,HAWKINS CREEK,-18.5858,146.0731,26,202305,332,E,NA,D,006123
ASN00032192,CARDWELL RANGE,-18.547,146.178,15,202305,232,E,NA,D,006124
ASN00033002,AYR DPI RESEARCH STN,-19.6169,147.3758,10,202305,2,E,NA,D,006127
ASN00033013,COLLINSVILLE POST OFFICE,-20.5534,147.8464,196,202305,4,E,NA,D,006138
ASN00033045,MACKAY AERO,-21.1706,149.1794,4.7,202305,882,D,NA,D,006169
ASN00033077,PACIFIC HEIGHTS,-23.0967,150.7342,75,202305,1982,E,NA,D,006201
ASN00033106,HAMILTON ISLAND AIRPORT,-20.3658,148.9536,58.7,202305,430,D,NA,D,006228
ASN00033111,MARLBOROUGH TM,-22.8131,149.89,100,202305,36,D,NA,D,006233
ASN00033119,MACKAY M.O,-21.1172,149.2169,30.3,202305,1176,NA,NA,S,006241
ASN00033195,WILLIAMSON,-22.4703,150.1786,27.6,202305,110,D,NA,D,006305
ASN00033210,ST LAWRENCE,-22.3472,149.5242,9.2,202305,66,D,NA,D,006316
ASN00033247,PROSERPINE AIRPORT,-20.4925,148.555,19.7,202305,54,D,NA,D,006347
ASN00033263,BOUNDARY CREEK ALERT,-20.4186,148.1108,196,202305,160,D,NA,D,006360
ASN00033264,BOWEN PUMP STATION ALERT,-20.0089,148.2044,4.8,202305,0,D,NA,D,006361
ASN00033266,MOSS VALE ALERT,-20.2381,148.0311,138,202305,0,D,NA,D,006363
ASN00033267,MT DANGAR ALERT,-20.2197,148.1217,45.6,202305,10,D,NA,D,006364
ASN00033269,ROMA PEAK ALERT,-20.3078,148.2181,148,202305,90,D,NA,D,006366
ASN00033270,UPPER DON ALERT,-20.525,148.2125,321,202305,100,D,NA,D,006367
ASN00033277,MIRANI WEIR TM,-21.1789,148.8297,34,202305,90,D,NA,D,006370
ASN00033280,POWERLINE TM,-19.6333,147.1103,24,202305,0,D,NA,D,006372
ASN00033285,THE GAP TM,-23.0883,150.11,9,202305,60,D,NA,D,006374
ASN00033286,CLARE ALERT,-19.7586,147.2436,9,202305,0,D,NA,D,006375
ASN00033287,MILLAROO ALERT,-19.9717,147.2508,19,202305,0,D,NA,D,006376
ASN00033288,INKERMAN BRIDGE ALERT,-19.6433,147.3972,3,202305,10,D,NA,D,006377
ASN00033289,STRATHBOGIE ALERT,-20.1425,147.5631,176,202305,0,D,NA,D,006378
ASN00033290,MT PLEASANT ALERT,-20.2897,147.9019,442,202305,0,D,NA,D,006379
ASN00033291,DALBEG ALERT,-20.3089,147.2961,35,202305,0,D,NA,D,006380
ASN00033292,MYUNA ALERT,-20.5819,147.5981,97,202305,0,D,NA,D,006381
ASN00033294,YEPPOON THE ESPLANADE,-23.1364,150.7506,5.5,202305,1558,D,NA,D,006383
ASN00033295,ALVA BEACH,-19.4569,147.4833,7.5,202305,2,D,NA,D,006384
ASN00033299,SARICH'S ALERT,-21.2725,148.8203,47.8,202305,50,D,NA,D,006388
ASN00033300,DUMBLETON ROCKS ALERT,-21.1439,149.0753,0,202305,290,D,NA,D,006389
ASN00033302,MIRANI WEIR ALERT,-21.1772,148.8311,34.3,202305,90,D,NA,D,006391
ASN00033303,MACKAY ALERT,-21.1397,149.1883,11,202305,1180,D,NA,D,006392
ASN00033304,GARGETT ALERT,-21.1792,148.7458,141,202305,190,D,NA,D,006393
ASN00033306,EMU CREEK ALERT,-20.4103,148.2306,218,202305,170,D,NA,D,006394
ASN00033308,SAMUEL HILL AERO,-22.7433,150.6578,31,202305,1424,E,NA,D,006396
ASN00033310,SOUTH YAAMBA TM,-23.2,150.3978,10,202305,0,D,NA,D,006398
ASN00033312,HEDLOW AIRFIELD TM,-23.2233,150.605,30,202305,136,D,NA,D,006400
ASN00033313,THE GLEN TM,-22.8264,150.3372,60,202305,174,D,NA,D,006401
ASN00034084,CHARTERS TOWERS AIRPORT,-20.0464,146.2708,289.8,202305,0,D,NA,D,006484
ASN00034097,BURDEKIN DAM ALERT,-20.6467,147.1372,179,202305,0,D,NA,D,006492
ASN00035039,GILIGULGUL TM,-26.3564,150.0464,367,202305,226,D,NA,D,006535
ASN00035040,WESTGROVE TM,-25.5811,148.4811,460,202305,122,D,NA,D,006536
ASN00035065,SPRINGSURE COMET ST,-24.123,148.0856,344.5,202305,40,E,NA,D,006561
ASN00035068,WADDY BRAE TM,-25.6103,148.9444,470,202305,54,D,NA,D,006564
ASN00035069,TAMBO POST OFFICE,-24.8819,146.2564,395.1,202305,146,D,NA,D,006565
ASN00035070,TAROOM POST OFFICE,-25.6408,149.7958,199,202305,0,E,NA,D,006566
ASN00035242,BUNGABAN TM,-25.8986,150.1297,260,202305,84,D,NA,D,006723
ASN00035264,EMERALD AIRPORT,-23.5694,148.1756,189.4,202305,12,E,NA,D,006742
ASN00035282,TAROOM TM,-25.6333,149.7833,181,202305,100,D,NA,D,006755
ASN00036026,ISISFORD POST OFFICE,-24.2591,144.4406,203,202305,0,D,NA,D,006789
ASN00036031,LONGREACH AERO,-23.4372,144.2769,192.2,202305,6,NA,NA,S,006794
ASN00037010,CAMOOWEAL TOWNSHIP,-19.9225,138.1214,231.2,202305,0,D,NA,D,006934
ASN00037036,TREPELL AIRPORT,-21.84,140.8925,266.2,202305,0,D,NA,D,006958
ASN00037039,WINTON AIRPORT,-22.3617,143.0836,192.2,202305,0,E,NA,D,006961
ASN00038000,BEDOURIE POLICE STATION,-24.3597,139.4714,91.4,202305,22,D,NA,D,007030
ASN00038026,BIRDSVILLE AIRPORT,-25.8975,139.3472,46.6,202305,8,E,NA,D,007055
ASN00039044,RIVERSLEA TM,-23.5694,149.9542,32,202305,90,D,NA,D,007136
ASN00039066,GAYNDAH AIRPORT,-25.6167,151.6156,110.9,202305,76,E,NA,D,007158
ASN00039083,ROCKHAMPTON AERO,-23.3753,150.4775,10.4,202305,204,A,NA,S,007175
ASN00039089,THANGOOL AIRPORT,-24.4935,150.5709,193.1,202305,52,E,NA,D,007181
ASN00039104,MONTO TOWNSHIP,-24.8642,151.1247,239,202305,68,E,NA,D,007196
ASN00039123,GLADSTONE RADAR,-23.8553,151.2628,74.5,202305,246,NA,NA,S,007214
ASN00039128,BUNDABERG AERO,-24.8885,152.3235,27,202305,190,D,NA,D,007218
ASN00039258,WALLA,-25.1342,151.98,14.5,202305,122,D,NA,D,007340
ASN00039313,WALLA TM,-25.1367,151.98,16,202305,20,D,NA,D,007384
ASN00039319,ABERCORN TM,-25.1303,151.1297,184,202305,30,D,NA,D,007388
ASN00039321,EIDSVOLD TM,-25.4,151.1,135,202305,60,D,NA,D,007389
ASN00039326,GLADSTONE AIRPORT,-23.8697,151.2214,16.6,202305,170,E,NA,D,007391
ASN00039338,BUNGADOO TM,-24.9822,152.0731,50,202305,90,D,NA,D,007402
ASN00039339,DINGLE DELL TM,-25.1475,151.6286,300,202305,210,D,NA,D,007403
ASN00039340,SAUERS TM,-25.62,151.59,100,202305,140,D,NA,D,007404
ASN00039341,BYRNESTOWN TM,-25.5247,151.76,120,202305,110,D,NA,D,007405
ASN00039349,WESTWOOD TM,-23.6211,150.1567,160,202305,170,D,NA,D,007411
ASN00040004,AMBERLEY AMO,-27.6297,152.7111,24.2,202305,548,E,NA,D,007416
ASN00040043,CAPE MORETON LIGHTHOUSE,-27.0314,153.4661,99.9,202305,672,E,NA,D,007455
ASN00040082,UNIVERSITY OF QUEENSLAND GATTO,-27.5436,152.3375,97,202305,580,D,NA,D,007494
ASN00040083,GATTON ALLAN STREET,-27.5428,152.2817,114,202305,600,E,NA,D,007495
ASN00040093,GYMPIE,-26.1831,152.6414,64.5,202305,474,D,NA,D,007505
ASN00040094,HARRISVILLE POST OFFICE,-27.8117,152.6675,39,202305,427,D,NA,D,007506
ASN00040126,MARYBOROUGH,-25.5161,152.7156,10.3,202305,278,E,NA,D,007538
ASN00040209,POINT LOOKOUT,-27.4361,153.5456,41,202305,944,D,NA,D,007621
ASN00040211,ARCHERFIELD AIRPORT,-27.5717,153.0078,12.5,202305,690,D,NA,D,007623
ASN00040223,BRISBANE AERO,-27.4178,153.1142,4,202305,171,NA,NA,S,007635
ASN00040224,ALDERLEY,-27.4193,153.0024,39,202305,890,D,NA,D,007636
ASN00040319,ROCKY POINT SUGAR MILL,-27.7347,153.3275,10,202305,1188,E,NA,D,007731
ASN00040334,BIGGENDEN TM,-25.5097,152.0456,125,202305,100,D,NA,D,007746
ASN00040335,MT TAMBORINE ALERT,-27.9694,153.2133,520,202305,880,D,NA,D,007747
ASN00040341,WONGAWALLAN ALERT,-27.8794,153.2139,360,202305,904,D,NA,D,007753
ASN00040345,LUSCOMBE ALERT,-27.8064,153.2072,260,202305,990,D,NA,D,007757
ASN00040376,TYUNGUN ALERT,-28.0867,153.1594,200,202305,500,D,NA,D,007787
ASN00040390,TEDDINGTON WATERWORKS,-25.65,152.6647,28,202305,291,D,NA,D,007801
ASN00040416,CLEARVIEW TM,-28.0017,153.3083,3,202305,1080,D,NA,D,007826
ASN00040503,TALLEGALLA ALERT,-27.6075,152.58,60,202305,560,D,NA,D,007895
ASN00040714,ROUND MOUNTAIN TM,-28.0708,152.9272,44,202305,590,D,NA,D,008038
ASN00040717,COOLANGATTA,-28.1681,153.5053,4,202305,1442,D,NA,D,008040
ASN00040738,BROMFLEET TM,-27.9114,153.1056,28,202305,690,D,NA,D,008050
ASN00040754,RATHDOWNEY TM,-28.2153,152.8681,84,202305,590,D,NA,D,008054
ASN00040762,YARRAHAPPINI TM,-27.8336,152.9878,11,202305,690,D,NA,D,008060
ASN00040764,GOLD COAST SEAWAY,-27.939,153.4283,3,202305,1402,D,NA,D,008062
ASN00040777,IMBIL TM,-26.4572,152.6803,76,202305,440,D,NA,D,008072
ASN00040778,ZACHARIAH TM,-26.3583,152.6283,90,202305,600,D,NA,D,008073
ASN00040782,COORAN TM,-26.3297,152.8136,70,202305,940,D,NA,D,008074
ASN00040784,CALAMVALE ALERT,-27.615,153.0444,90,202305,720,D,NA,D,008076
ASN00040785,CAROLE PARK ALERT,-27.6017,152.9511,80,202305,770,D,NA,D,008077
ASN00040786,JINGLE DOWNS ALERT,-27.7456,152.9081,100,202305,640,D,NA,D,008078
ASN00040788,FORESTDALE(JOHNSON RD)AL,-27.6583,153,80,202305,750,D,NA,D,008079
ASN00040790,MT GRAVATT ALERT,-27.5467,153.0717,195,202305,720,D,NA,D,008080
ASN00040793,LYONS ALERT,-27.7633,152.8367,150,202305,618,D,NA,D,008083
ASN00040794,GREENBANK(THOMPSON RD)AL,-27.6956,152.9333,80,202305,740,D,NA,D,008084
ASN00040801,KANDANGA TM,-26.3878,152.6842,80,202305,414,D,NA,D,008090
ASN00040811,KILKIVAN TM,-26.0833,152.2167,29,202305,140,D,NA,D,008097
ASN00040814,MOY POCKET TM,-26.5256,152.7428,70,202305,490,D,NA,D,008098
ASN00040816,AMBERLEY (DNR) TM,-27.6658,152.6989,18,202305,510,D,NA,D,008099
ASN00040823,ROSENTRETERS BRIDGE TM,-27.1381,152.3294,102,202305,370,D,NA,D,008101
ASN00040824,FISHERMANS POCKET TM,-26.1711,152.5994,33,202305,610,D,NA,D,008102
ASN00040825,MARODIAN TM,-25.9,152.3497,19,202305,210,D,NA,D,008103
ASN00040827,BAN BAN TM,-25.7167,151.8,122,202305,70,D,NA,D,008104
ASN00040829,HELIDON TM,-27.5439,152.1133,124,202305,380,D,NA,D,008105
ASN00040830,BELLBIRD CREEK TM,-26.6278,152.7042,95,202305,690,D,NA,D,008106
ASN00040832,FOREST HOME TM,-28.2033,152.77,110,202305,570,D,NA,D,008107
ASN00040833,HOME PARK TM,-25.7683,152.525,5,202305,290,D,NA,D,008108
ASN00040836,ONE MILE BRIDGE ALERT,-27.6272,152.7461,0,202305,560,D,NA,D,008109
ASN00040841,CROFTBY TM,-28.1481,152.57,162,202305,550,D,NA,D,008112
ASN00040842,BRISBANE AERO,-27.3917,153.1292,4.5,202305,546,D,NA,D,008113
ASN00040844,BEECHMONT ALERT,-28.135,153.1883,520,202305,620,D,NA,D,008115
ASN00040845,BINNA BURRA ALERT,-28.2006,153.1872,780,202305,560,D,NA,D,008116
ASN00040846,CLEARVIEW ALERT,-28.0017,153.3083,2.7,202305,1000,D,NA,D,008117
ASN00040847,HINZE DAM ALERT,-28.0522,153.2817,82.2,202305,890,D,NA,D,008118
ASN00040848,LOWER SPRINGBROOK ALERT,-28.2083,153.27,705,202305,938,D,NA,D,008119
ASN00040854,LOGAN CITY WATER TREATMENT,-27.6839,153.1947,14,202305,825,D,NA,D,008125
ASN00040856,RAINBOW BEACH,-25.9007,153.0891,14.4,202305,1030,D,NA,D,008127
ASN00040861,MAROOCHYDORE AERO,-26.6006,153.0903,3.3,202305,1124,D,NA,D,008131
ASN00040867,KALBAR TM,-27.9406,152.6236,80,202305,472,D,NA,D,008137
ASN00040868,MT JOSEPH TM,-25.7417,152.2353,120.4,202305,194,D,NA,D,008138
ASN00040876,WILSONS PEAK ALERT,-28.2372,152.4867,852,202305,750,D,NA,D,008141
ASN00040878,WATERFORD ALERT,-27.6947,153.1364,0.1,202305,700,D,NA,D,008142
ASN00040882,NUMINBAH ALERT,-28.1653,153.2161,152,202305,590,D,NA,D,008146
ASN00040889,OAKWOOD TM,-26.4472,152.4869,200,202305,592,D,NA,D,008152
ASN00040891,BROOWEENA TM,-25.6022,152.2603,164,202305,190,D,NA,D,008154
ASN00040892,MT KANIGAN TM,-25.9586,152.5753,330,202305,372,D,NA,D,008155
ASN00040893,GOOMBOORIAN TM,-26.0642,152.7728,80,202305,740,D,NA,D,008156
ASN00040896,TEDDINGTON WEIR HW TM,-25.6517,152.6633,25,202305,322,D,NA,D,008159
ASN00040902,MUSKET FLAT MT ALERT,-25.4969,152.3836,200,202305,160,D,NA,D,008162
ASN00040903,PACIFIC HAVEN ALERT,-25.2386,152.5319,10,202305,180,D,NA,D,008163
ASN00040905,UPPER CHERWELL ALERT,-25.2928,152.4097,30,202305,140,D,NA,D,008165
ASN00040906,LENTHALLS DAM ALERT,-25.4019,152.5317,24,202305,270,D,NA,D,008166
ASN00040907,HOWARD ALERT,-25.3289,152.5619,10,202305,240,D,NA,D,008167
ASN00040908,TEWANTIN RSL PARK,-26.3911,153.0403,6.4,202305,1236,NA,NA,S,008168
ASN00040912,FRANKLYN VALE ALERT,-27.7597,152.47,160,202305,654,D,NA,D,008172
ASN00040922,KINGAROY AIRPORT,-26.5737,151.8398,433.7,202305,168,D,NA,D,008181
ASN00040931,O'REILLYS ALERT,-28.2314,153.1356,913,202305,590,D,NA,D,008187
ASN00040932,DARLINGTON ALERT,-28.2608,153.0917,300,202305,510,D,NA,D,008188
ASN00040933,FOXLEY ALERT,-28.27,153.0264,178,202305,590,D,NA,D,008189
ASN00040935,MACLEAN BRIDGE ALERT,-27.7864,153.0161,3,202305,720,D,NA,D,008191
ASN00040936,LUMEAH ALERT,-28.0614,153.0408,90,202305,560,D,NA,D,008192
ASN00040937,BENOBBLE ALERT,-27.9978,153.1575,72,202305,700,D,NA,D,008193
ASN00040938,BROMFLEET ALERT,-27.9108,153.1047,28,202305,750,D,NA,D,008194
ASN00040939,BEAUDESERT ALERT,-27.9681,152.9861,50,202305,660,D,NA,D,008195
ASN00040940,YARRAHAPPINI ALERT,-27.8336,152.9878,40,202305,804,D,NA,D,008196
ASN00040941,KOORALBYN ALERT,-28.0708,152.8558,326,202305,770,D,NA,D,008197
ASN00040942,PALEN CREEK ALERT,-28.3222,152.7697,220,202305,840,D,NA,D,008198
ASN00040943,DIECKMANS BRIDGE ALERT,-28.2453,152.8908,105,202305,580,E,NA,D,008199
ASN00040944,RUDDS LANE ALERT,-28.1692,152.9833,87,202305,520,D,NA,D,008200
ASN00040945,ROUND MOUNTAIN ALERT,-28.0708,152.9272,62,202305,720,D,NA,D,008201
ASN00040946,RATHDOWNEY ALERT,-28.2153,152.8681,84,202305,660,D,NA,D,008202
ASN00040947,CROFTBY ALERT,-28.1481,152.57,173,202305,580,D,NA,D,008203
ASN00040948,KNAPPS PEAK ALERT,-28.1461,152.7358,278,202305,570,D,NA,D,008204
ASN00040949,BOONAH ALERT,-28.0033,152.6875,110,202305,500,D,NA,D,008205
ASN00040958,REDCLIFFE,-27.2169,153.0922,12.6,202305,704,D,NA,D,008213
ASN00040969,GODWIN BEACH,-27.0717,153.1058,7,202305,882,D,NA,D,008221
ASN00040978,BRIBIE ISLAND ALERT,-27.0797,153.1803,7,202305,1100,D,NA,D,008227
ASN00040979,MORAYFIELD ALERT,-27.1247,152.9356,24,202305,1070,D,NA,D,008228
ASN00040980,DECEPTION BAY ALERT,-27.1822,153.0186,4,202305,750,D,NA,D,008229
ASN00040981,BURLEIGH WATERS ALERT,-28.0792,153.4319,-999.9,202305,1330,D,NA,D,008230
ASN00041005,BELL STORE,-26.9322,151.4503,491,202305,244,D,NA,D,008238
ASN00041085,QUEEN MARY FALLS,-28.3253,152.3942,884,202305,802,D,NA,D,008318
ASN00041090,DARR CREEK TM,-26.5392,151.1347,393,202305,110,D,NA,D,008323
ASN00041092,BALLON TM,-26.4489,150.8925,335,202305,170,D,NA,D,008325
ASN00041095,STANTHORPE LESLIE PARADE,-28.6617,151.9339,787,202305,709,D,NA,D,008328
ASN00041100,TEXAS POST OFFICE,-28.8544,151.1681,297,202305,470,E,NA,D,008333
ASN00041112,GIDDI GIDDI SOUTH TM,-28.4033,150.0517,196,202305,450,D,NA,D,008344
ASN00041152,LANGLEY TM,-27.9753,150.9225,360,202305,644,D,NA,D,008381
ASN00041162,BYBERA TM,-28.2694,150.8106,290,202305,700,D,NA,D,008391
ASN00041175,APPLETHORPE,-28.6217,151.9533,871.6,202305,784,D,NA,D,008404
ASN00041230,LIMEVALE TM,-28.7208,151.1825,320,202305,626,D,NA,D,008458
ASN00041348,WYAGA TM,-28.1667,150.6444,267,202305,750,D,NA,D,008573
ASN00041359,OAKEY AERO,-27.4034,151.7413,405.7,202305,570,D,NA,D,008578
ASN00041365,PIKEDALE TM,-28.6514,151.6336,560,202305,686,D,NA,D,008582
ASN00041415,WARAHGAI TM,-28.2367,151.5347,488,202305,688,D,NA,D,008626
ASN00041489,MEDPARK BRIDGE TM,-28.3011,150.2936,216,202305,676,D,NA,D,008684
ASN00041490,BRIGALOW BRIDGE TM,-26.9,150.7833,297,202305,390,D,NA,D,008685
ASN00041491,BARONGAROOK TM,-28.4333,151.4667,20,202305,680,D,NA,D,008686
ASN00041495,TERRAINE TM,-28.4828,151.2831,318,202305,660,D,NA,D,008689
ASN00041503,WARWICK (SCOTS COLLEGE) TM,-28.2167,152.05,446,202305,260,D,NA,D,008692
ASN00041506,BENGALLA TM,-28.6561,150.6653,227.9,202305,822,D,NA,D,008695
ASN00041507,NEW KILDONAN TM,-28.6656,150.445,230,202305,536,D,NA,D,008696
ASN00041508,O'CONNOR TM,-27.7267,150.6453,300,202305,420,D,NA,D,008697
ASN00041514,LEYBURN TM,-28.0333,151.5833,-999.9,202305,640,D,NA,D,008703
ASN00041519,BOOBA SANDS TM,-28.5767,150.845,-999.9,202305,660,D,NA,D,008704
ASN00041522,DALBY AIRPORT,-27.1605,151.2634,343.9,202305,472,D,NA,D,008706
ASN00041525,WARWICK,-28.2061,152.1003,475.4,202305,602,D,NA,D,008708
ASN00041529,TOOWOOMBA AIRPORT,-27.5425,151.9134,640.9,202305,654,D,NA,D,008711
ASN00041530,YANGAN ALERT,-28.2006,152.2156,495.8,202305,490,D,NA,D,008712
ASN00041531,GLENGALLAN CREEK ALERT,-28.1167,152.0642,460,202305,500,D,NA,D,008713
ASN00041532,CONNOLLY DAM ALERT,-28.3558,151.9967,540,202305,530,D,NA,D,008714
ASN00041533,EMU VALE ALERT,-28.2292,152.2269,511,202305,400,D,NA,D,008715
ASN00041534,WARWICK ALERT,-28.2111,152.0275,448,202305,670,D,NA,D,008716
ASN00041535,ELBOW VALLEY ALERT,-28.3731,152.14,490,202305,590,D,NA,D,008717
ASN00041536,MURRAYS BRIDGE ALERT,-28.2883,152.1053,470,202305,560,D,NA,D,008718
ASN00041537,KILLARNEY ALERT,-28.3394,152.2944,507,202305,550,D,NA,D,008719
ASN00041545,DUNMORE EXCHANGE TM,-27.6539,150.9136,350,202305,728,D,NA,D,008726
ASN00041546,AVOCA TM,-27.9803,150.515,290,202305,686,D,NA,D,008727
ASN00041547,WALLANGARRA TM,-28.9236,151.9289,877,202305,530,D,NA,D,008728
ASN00041548,TEXAS TM,-28.8675,151.1611,272,202305,460,D,NA,D,008729
ASN00041550,GRAYS GATE EXCHANGE TM,-27.9856,151.2828,400,202305,782,D,NA,D,008731
ASN00041551,BELGRAE PARK ALERT,-26.9669,151.4847,480,202305,230,D,NA,D,008732
ASN00042025,HORSE CREEK TM,-26.5519,150.6322,350,202305,320,D,NA,D,008761
ASN00042036,BAWNDUGGIE TM,-26.16,150.8392,380,202305,20,D,NA,D,008772
ASN00042104,SURREY TM,-28.3839,149.6747,190,202305,286,D,NA,D,008834
ASN00042112,MILES CONSTANCE STREET,-26.6569,150.1819,304.8,202305,364,NA,NA,S,008838
ASN00042115,LUNDAVRA TM,-28.0697,149.9794,240,202305,634,D,NA,D,008841
ASN00042116,ARDEN DOWNS TM,-28.23,149.5617,230,202305,200,D,NA,D,008842
ASN00043006,MOOGA HILLS TM,-26.2544,148.9453,380,202305,160,D,L,D,008850
ASN00043008,SPRINGDALE TM,-26.1683,148.6644,400,202305,128,D,NA,D,008852
ASN00043020,MITCHELL POST OFFICE,-26.4888,147.9777,336.5,202305,136,D,NA,D,008864
ASN00043051,PINE HILLS TM,-26.2625,149.2389,350,202305,292,D,NA,D,008894
ASN00043054,INJUNE TM,-25.8428,148.5669,390,202305,128,D,NA,D,008897
ASN00043091,ROMA AIRPORT,-26.5442,148.7778,303.2,202305,208,D,NA,D,008929
ASN00043100,OLD CASHMERE TM,-27.7333,148.4667,24,202305,120,D,NA,D,008937
ASN00043101,WERIBONE TM,-27.3117,148.8267,215,202305,220,D,NA,D,008938
ASN00043102,MITCHELL TM,-26.49,147.9792,326,202305,110,D,NA,D,008939
ASN00043105,TABERS TM,-26.4083,148.7833,315,202305,220,D,NA,D,008940
ASN00043108,BENDOBA TM,-25.96,148.3867,470,202305,142,D,NA,D,008943
ASN00043109,ST GEORGE AIRPORT,-28.0489,148.5942,198.5,202305,116,E,NA,D,008944
ASN00044021,CHARLEVILLE AERO,-26.4139,146.2558,301.6,202305,116,NA,NA,S,008967
ASN00044026,CUNNAMULLA POST OFFICE,-28.0706,145.6808,188.7,202305,162,D,NA,D,008972
ASN00044211,CHESTERTON TM,-25.3353,147.3,520,202305,102,D,NA,D,009146
ASN00044212,DUNVEGAN TM,-26.1236,146.6228,400,202305,216,D,NA,D,009147
ASN00045009,BALLERA GAS FIELD,-27.4008,141.8114,114.5,202305,0,D,NA,D,009168
ASN00045025,THARGOMINDAH AIRPORT,-27.9867,143.815,130.9,202305,2,A,NA,S,009184
ASN00046012,WILCANNIA AERODROME AWS,-31.5194,143.385,94.3,202305,0,D,NA,D,009237
ASN00046126,TIBOOBURRA AIRPORT,-29.4448,142.0567,176.4,202305,0,E,NA,D,009347
ASN00046128,FOWLERS GAP AWS,-31.0867,141.7017,181,202305,0,D,NA,D,009349
ASN00046129,WHITE CLIFFS AWS,-30.8517,143.0742,158,202305,0,E,NA,D,009350
ASN00047016,LAKE VICTORIA STORAGE,-34.0398,141.2652,43,202305,82,D,NA,D,009369
ASN00047019,MENINDEE POST OFFICE,-32.3937,142.4173,61,202305,88,E,NA,D,009372
ASN00047029,POONCARIE MAIL AGENCY,-33.3856,142.5696,53,202305,62,D,NA,D,009382
ASN00047040,WENTWORTH (WAMBERRA STATION),-33.9297,142.3572,60,202305,102,E,NA,D,009393
ASN00047048,BROKEN HILL AIRPORT AWS,-32.0012,141.4694,281.3,202305,24,D,NA,D,009401
ASN00047053,WENTWORTH POST OFFICE,-34.1065,141.9189,37,202305,124,E,NA,D,009406
ASN00047056,BROKEN HILL (LANGWELL),-32.419,141.5525,124,202305,40,E,NA,D,009409
ASN00047093,WENTWORTH (BURTUNDY),-33.7492,142.2205,42,202305,80,E,NA,D,009446
ASN00047106,POONCARIE (HARCOURT),-32.9703,142.3855,55,202305,50,E,NA,D,009456
ASN00047107,PARINGI(KERRIBEE),-34.3206,142.3645,60,202305,114,E,NA,D,009457
ASN00048027,COBAR MO,-31.484,145.8294,260,202305,8,NA,NA,S,009485
ASN00048031,COLLARENEBRI (ALBERT ST),-29.5407,148.5818,145,202305,8,D,NA,D,009489
ASN00048237,COBAR AIRPORT AWS,-31.5389,145.7964,218,202305,16,D,NA,D,009671
ASN00048243,LIGHTNING RIDGE VISITORS INFOR,-29.431,147.9722,154,202305,0,E,NA,D,009677
ASN00048245,BOURKE AIRPORT AWS,-30.0362,145.9521,107.3,202305,34,D,NA,D,009679
ASN00049000,IVANHOE AERODROME AWS,-32.8831,144.3088,100,202305,66,D,NA,D,009680
ASN00049002,BALRANALD (RSL),-34.6398,143.561,61,202305,96,D,NA,D,009682
ASN00049049,HATFIELD (BENILKIE),-33.7272,144.0175,81,202305,60,E,NA,D,009729
ASN00049055,OXLEY (WALMER DOWNS),-34.1953,143.7916,68,202305,92,E,NA,D,009735
ASN00049063,IVANHOE (KILFERA),-33.052,144.1444,79,202305,70,E,NA,D,009743
ASN00050017,WEST WYALONG AIRPORT AWS,-33.9382,147.1962,257,202305,68,D,NA,D,009826
ASN00050031,PEAK HILL POST OFFICE,-32.7235,148.1902,285,202305,52,D,NA,D,009840
ASN00050045,YALGOGRIN NORTH (ROLOMA),-33.8486,146.8261,315,202305,85,E,NA,D,009854
ASN00050119,ALECTOWN (VANVILLA),-32.9365,148.2452,350,202305,18,D,NA,D,009927
ASN00050137,CONDOBOLIN AIRPORT AWS,-33.0682,147.2133,192.6,202305,66,D,NA,D,009942
ASN00051049,TRANGIE RESEARCH STATION AWS,-31.9861,147.9489,215,202305,34,D,NA,D,009997
ASN00051160,GILGANDRA COUNCIL DEPOT,-31.7069,148.6358,288,202305,6,D,NA,D,010094
ASN00051161,COONAMBLE AIRPORT AWS,-30.9776,148.3798,181.3,202305,150,D,NA,D,010095
ASN00052020,MUNGINDI POST OFFICE,-28.9786,148.9899,160,202305,126,D,NA,D,010116
ASN00052088,WALGETT AIRPORT AWS,-30.0372,148.1223,133,202305,104,D,NA,D,010175
ASN00053002,BARADINE FORESTRY,-30.9469,149.0654,302,202305,0,D,NA,D,010178
ASN00053115,MOREE AERO,-29.4914,149.8458,213,202305,106,NA,NA,S,010276
ASN00054003,BARRABA POST OFFICE,-30.3781,150.6096,500,202305,10,D,NA,D,010281
ASN00054021,BARRABA (MOUNT LINDSAY),-30.3209,150.2734,869,202305,34,D,NA,D,010299
ASN00054038,"NARRABRI AIRPORT AWS",-30.3154,149.8302,229,202305,4,D,NA,D,010316
ASN00054076,KINGS PLAINS (WINDERMERE),-29.64,151.4297,-999.9,202305,410,D,NA,D,010354
ASN00054151,"NARRABRI (MT KAPUTAR NATIONAL",-30.2838,150.1666,1450,202305,14,D,NA,D,010416
ASN00055016,DANGLEMAH (RUTHERGLEN),-30.9963,151.2292,655,202305,14,D,NA,D,010439
ASN00055024,GUNNEDAH RESOURCE CENTRE,-31.0261,150.2687,307,202305,4,D,NA,D,010447
ASN00055046,PINE RIDGE (BILLABONG),-31.5271,150.4296,340,202305,36,D,NA,D,010469
ASN00055049,QUIRINDI POST OFFICE,-31.5086,150.6792,390,202305,14,D,NA,D,010472
ASN00055136,WOOLBROOK (DANGLEMAH ROAD),-30.9672,151.3451,910,202305,12,D,NA,D,010559
ASN00055164,WEABONGA (STONELEIGH),-31.1805,151.3031,690,202305,22,D,NA,D,010587
ASN00055195,GOWRIE (LALLYBROCH),-31.4373,150.8913,638,202305,17,D,NA,D,010618
ASN00055245,NUNDLE (KEEVA),-31.5008,151.0271,670,202305,24,D,NA,D,010667
ASN00055257,DURI (DUNGOWAN RD),-31.2208,150.8213,456,202305,8,D,NA,D,010679
ASN00055262,OGUNBIL (AMAROO),-31.3505,151.3177,585,202305,0,D,NA,D,010682
ASN00055309,DUNGOWAN (GLENDOWER MOUNTAIN (,-31.1472,151.2306,1050,202305,16,D,NA,D,010718
ASN00055313,GOONOO GOONOO (GOONOO GOONOO C,-31.2717,150.9167,450,202305,8,D,NA,D,010720
ASN00055321,MULLA CROSSING (COCKBURN RIVER,-31.0625,151.125,-999.9,202305,10,D,NA,D,010726
ASN00055322,NIANGALA (MOUNT SANDON),-31.3908,151.4019,1330,202305,44,D,NA,D,010727
ASN00055325,TAMWORTH AIRPORT AWS,-31.0742,150.8362,394.9,202305,2,D,NA,D,010730
ASN00055335,NUNDLE (MALONGA),-31.5347,151.1806,1200,202305,24,D,NA,D,010739
ASN00056006,BUNDARRA POST OFFICE,-30.1711,151.0757,654,202305,86,D,NA,D,010747
ASN00056018,INVERELL RESEARCH CENTRE,-29.7752,151.0819,664,202305,304,NA,NA,S,010758
ASN00056034,URALLA (DUMARESQ ST),-30.6437,151.4906,1012,202305,76,D,NA,D,010774
ASN00056037,ARMIDALE (TREE GROUP NURSERY),-30.5264,151.6697,987,202305,124,D,NA,D,010777
ASN00056038,WYLIE CREEK (ALOOMBA),-28.5529,152.1577,675,202305,692,D,NA,D,010778
ASN00056161,GUYRA (GOWAN BRAE),-30.1575,151.8774,1325,202305,230,D,NA,D,010898
ASN00056229,GUYRA HOSPITAL,-30.2126,151.6787,1332,202305,216,D,NA,D,010955
ASN00056237,INVERELL (ELSMORE VILLAGE),-29.8025,151.2726,700,202305,256,D,NA,D,010960
ASN00056238,ARMIDALE AIRPORT AWS,-30.5273,151.6158,1079,202305,112,D,NA,D,010961
ASN00056240,GUYRA (BOX POINT),-30.3358,151.7367,1340,202305,226,D,NA,D,010963
ASN00056242,INVERELL (RAGLAN ST),-29.7796,151.1121,582,202305,274,D,NA,D,010965
ASN00056243,GLEN INNES AIRPORT AWS,-29.678,151.694,1044.3,202305,474,D,NA,D,010966
ASN00057014,GLEN ELGIN (GLENBROOK),-29.5577,152.1388,895,202305,524,D,NA,D,010981
ASN00057020,URBENVILLE OLD POST OFFICE,-28.4735,152.5481,370,202305,666,D,NA,D,010987
ASN00057079,WOLLOMOMBI (WOLLOMOMBI RIVER),-30.5178,152.0431,900,202305,80,D,NA,D,011038
ASN00057091,URALLA (BLUE NOBBY),-30.7167,151.8531,1067,202305,60,D,NA,D,011048
ASN00057095,TABULAM (MUIRNE),-28.7551,152.4507,555,202305,744,D,NA,D,011051
ASN00057124,POINT LOOKOUT,-30.4833,152.398,1550,202305,296,D,NA,D,011073
ASN00058005,BRAYS CREEK (MISTY MOUNTAIN),-28.3981,153.1731,130,202305,780,D,NA,D,011082
ASN00058007,BYRON BAY (JACARANDA DRIVE),-28.6369,153.588,3,202305,1532,D,NA,D,011084
ASN00058012,YAMBA PILOT STATION,-29.4333,153.3633,27.4,202305,744,B,NA,S,011089
ASN00058028,COALDALE (BELLONA),-29.3842,152.7936,140,202305,466,D,NA,D,011105
ASN00058068,LAWRENCE ROAD (PRINGLES WAY),-29.4133,153.0153,110,202305,328,D,NA,D,011145
ASN00058077,GRAFTON RESEARCH STN,-29.6224,152.9605,25,202305,426,D,NA,D,011154
ASN00058079,PILLAR VALLEY,-29.7619,153.1047,15,202305,260,D,NA,D,011156
ASN00058080,WOOLI BEACH,-29.87,153.2653,5,202305,505,D,NA,D,011157
ASN00058129,KUNGHUR (THE JUNCTION),-28.4658,153.2632,61,202305,990,D,NA,D,011206
ASN00058148,LILLIAN ROCK (WILLIAMS ROAD),-28.5276,153.1519,345,202305,900,D,NA,D,011224
ASN00058161,GRAFTON AIRPORT AWS,-29.7583,153.0297,25.1,202305,274,D,NA,D,011236
ASN00058162,"NASHUA (WILSONS RIVER)",-28.7278,153.4622,30,202305,1370,D,NA,D,011237
ASN00058167,UKI (TWEED RIVER),-28.4147,153.3339,30,202305,1175,D,NA,D,011242
ASN00058180,NIMBIN (GOOLMANGAR CREEK),-28.6069,153.2083,60,202305,920,D,NA,D,011247
ASN00058186,MURWILLUMBAH (TWEED RIVER),-28.3283,153.4,-999.9,202305,1240,D,NA,D,011250
ASN00058193,EUNGELLA (OXLEY RIVER),-28.3538,153.293,20,202305,1010,D,NA,D,011254
ASN00058194,DAIRY FLAT,-28.3811,152.7174,25,202305,904,D,NA,D,011255
ASN00058198,BALLINA AIRPORT AWS,-28.8353,153.5585,1.3,202305,1368,D,NA,D,011258
ASN00058199,ROCK VALLEY (LEYCESTER CREEK),-28.7364,153.1634,20,202305,750,D,NA,D,011259
ASN00058201,TUNCESTER (LEYCESTER CREEK),-28.7967,153.2386,10,202305,760,D,NA,D,011260
ASN00058202,BENTLEY (BACK CREEK),-28.7406,153.075,40,202305,830,D,NA,D,011261
ASN00058204,BOAT HARBOUR (ROUS RIVER),-28.3217,153.3467,30,202305,1350,D,NA,D,011262
ASN00058206,EWING BRIDGE CORNDALE (COOPERS,-28.7231,153.3614,25,202305,1160,D,NA,D,011263
ASN00058207,BUSBYS FLAT,-29.0374,152.8055,105,202305,622,D,NA,D,011264
ASN00058208,CASINO AIRPORT AWS,-28.8775,153.052,20.9,202305,364,E,NA,D,011265
ASN00058212,EVANS HEAD RAAF BOMBING RANGE,-29.183,153.3964,62.5,202305,974,D,NA,D,011269
ASN00058214,LISMORE AIRPORT AWS,-28.8343,153.2616,8.7,202305,762,D,NA,D,011271
ASN00058216,BYRON BAY (CAPE BYRON AWS),-28.6399,153.6358,95,202305,1098,D,NA,D,011272
ASN00058222,MINNIE WATER PUMP SHED,-29.7847,153.2639,30,202305,450,D,NA,D,011278
ASN00059007,KEMPSEY AIRPORT AWS,-31.0711,152.7717,13,202305,48,D,NA,D,011287
ASN00059030,SOUTH WEST ROCKS (SMOKY CAPE L,-30.9225,153.087,117,202305,164,D,NA,D,011310
ASN00059040,COFFS HARBOUR MO,-30.3107,153.1187,5,202305,830,NA,NA,S,011320
ASN00059045,MELDRUM (COOLAWARRAH),-30.3614,152.4917,1230,202305,620,D,NA,D,011325
ASN00059054,GLENREAGH GENERAL STORE,-30.05,152.9794,67,202305,304,D,NA,D,011333
ASN00059070,UPPER DARKWOOD,-30.4508,152.6231,-999.9,202305,360,D,NA,D,011349
ASN00059122,BELLBROOK (MACLEAY RIVER),-30.8217,152.5067,70,202305,20,D,NA,D,011391
ASN00059128,MAJORS CREEK (MOPARRABAH (PARR,-30.9783,152.5106,-999.9,202305,120,D,NA,D,011393
ASN00059131,MILLBANK (FAIRLIE DOWNS),-30.8796,152.6113,70,202305,30,D,NA,D,011395
ASN00059138,BOWRA SUGARLOAF,-30.6639,152.6528,870,202305,350,D,NA,D,011402
ASN00059139,"NANA GLEN (COWLING CLOSE)",-30.1014,153.0009,70,202305,256,D,NA,D,011403
ASN00060015,GLOUCESTER POST OFFICE,-32.0063,151.9597,105,202305,144,D,NA,D,011419
ASN00060021,KRAMBACH POST OFFICE,-32.0512,152.2598,75,202305,195,D,NA,D,011425
ASN00060036,WINGHAM (LANARK CLOSE),-31.862,152.3444,66,202305,130,D,NA,D,011440
ASN00060042,CRAVEN (LONGVIEW),-32.1532,151.9511,130,202305,408,D,NA,D,011446
ASN00060065,WOOTTON,-32.2942,152.3047,-999.9,202305,150,D,NA,D,011469
ASN00060067,UPPER PAPPINBARRA (HILLCREST),-31.2821,152.4315,220,202305,50,D,NA,D,011471
ASN00060069,COOPLACURRIPA,-31.6167,151.9333,-999.9,202305,70,D,NA,D,011473
ASN00060085,YARRAS (MOUNT SEAVIEW),-31.3865,152.2482,155,202305,240,E,NA,D,011489
ASN00060095,BUNGWAHL,-32.375,152.3808,-999.9,202305,750,D,NA,D,011498
ASN00060096,CABBAGE TREE MOUNTAIN,-32.2583,152.1208,-999.9,202305,680,D,NA,D,011499
ASN00060099,CRAWFORD RIVER (CRAWFORD),-32.443600000000004,152.1561,-999.9,202305,880,D,NA,D,011501
ASN00060103,KRAMBACH (TIPPERARY),-32.0641,152.1243,180,202305,60,D,NA,D,011505
ASN00060104,NOWENDOC (GREEN HILLS),-31.4138,151.598,1130,202305,50,D,NA,D,011506
ASN00060117,MOUNT GEORGE (MANNING RIVER),-31.8833,152.15,15,202305,95,D,NA,D,011513
ASN00060141,TAREE AIRPORT AWS,-31.8896,152.512,8,202305,93,A,NA,S,011529
ASN00060147,KILLABAKH,-31.7361,152.3989,-999.9,202305,120,D,NA,D,011535
ASN00061014,BRANXTON  (DALWOOD VINEYARD),-32.6385,151.4173,40,202305,228,D,NA,D,011551
ASN00061024,GRESFORD POST OFFICE,-32.4266,151.5376,85,202305,274,D,NA,D,011561
ASN00061054,NELSON BAY (NELSON HEAD),-32.7103,152.1612,25,202305,1685,D,NA,D,011591
ASN00061055,NEWCASTLE NOBBYS SIGNAL STATIO,-32.9185,151.7985,33,202305,1136,D,NA,D,011592
ASN00061056,POKOLBIN (BEN EAN),-32.7965,151.2804,140,202305,202,D,NA,D,011593
ASN00061078,WILLIAMTOWN RAAF,-32.7932,151.8359,9,202305,408,NA,NA,S,011615
ASN00061092,ELDERSLIE,-32.5932,151.3335,45,202305,190,D,NA,D,011629
ASN00061100,BROKE (HARROWBY),-32.7667,151.0872,76,202305,90,D,NA,D,011637
ASN00061110,HOWES VALLEY,-32.8736,150.7936,235,202305,60,D,NA,D,011647
ASN00061143,BULGA (DOWN TOWN),-32.654,151.021,69,202305,58,D,NA,D,011677
ASN00061195,MURRURUNDI (TIMOR),-31.773,151.0776,415,202305,20,D,NA,D,011724
ASN00061209,PUTTY TEA ROOMS,-32.9597,150.675,280,202305,14,D,NA,D,011736
ASN00061226,WOLLOMBI (ST JOHNS CHURCH),-32.936,151.1393,97,202305,160,D,NA,D,011752
ASN00061250,PATERSON (TOCAL AWS),-32.6296,151.5919,30,202305,412,D,NA,D,011775
ASN00061260,CESSNOCK AIRPORT AWS,-32.7886,151.3377,61,202305,176,D,NA,D,011785
ASN00061268,MAITLAND BELMORE BRIDGE (HUNTE,-32.73,151.555,-999.9,202305,90,D,NA,D,011791
ASN00061282,DORA CREEK,-33.0833,151.5,15.2,202305,376,D,NA,D,011801
ASN00061287,MERRIWA (ROSCOMMON),-32.1852,150.1737,375,202305,28,D,NA,D,011806
ASN00061290,UPPER ALLYN TOWNSHIP,-32.1621,151.4905,315,202305,180,D,NA,D,011809
ASN00061306,KARS SPRINGS (WELLDUN),-31.8988,150.658,345,202305,6,D,NA,D,011824
ASN00061334,GLEN ALICE,-33.0488,150.2325,320,202305,20,D,NA,D,011850
ASN00061336,PUTTY (THE GIBBA),-33.1556,150.6847,330,202305,40,D,NA,D,011852
ASN00061349,GOSTWYCK BRIDGE (PATERSON RIVE,-32.5667,151.6083,-999.9,202305,220,D,NA,D,011858
ASN00061350,UPPER CHICHESTER (SIMMONDS),-32.1714,151.5942,265,202305,310,D,NA,D,011859
ASN00061360,SCONE (KINGDON PONDS),-32.05,150.8528,198,202305,5,D,NA,D,011867
ASN00061363,SCONE AIRPORT AWS,-32.0335,150.8264,221.4,202305,14,D,NA,D,011870
ASN00061366,NORAH HEAD AWS,-33.2815,151.5766,18.8,202305,1068,D,NA,D,011873
ASN00061373,PARKVILLE (KINGDON PONDS),-31.9583,150.8567,200,202305,14,D,NA,D,011879
ASN00061375,MANGROVE MOUNTAIN AWS,-33.2894,151.2107,305,202305,124,D,NA,D,011881
ASN00061377,SWANSEA (CATHERINE ST),-33.0933,151.6317,3,202305,1018,D,NA,D,011883
ASN00061382,WYONG (KULNURA (JEAVONS)),-33.1681,151.2181,270,202305,120,D,NA,D,011888
ASN00061383,GEARS (WYONG RIVER),-33.2528,151.3164,20,202305,115,D,NA,D,011889
ASN00061385,WYONG (OLNEY FOREST),-33.0789,151.3403,390,202305,360,E,NA,D,011891
ASN00061392,MURRURUNDI GAP AWS,-31.7416,150.7937,729.4,202305,28,D,NA,D,011898
ASN00061406,NEWCASTLE (BLACKSMITHS),-33.0831,151.6511,10,202305,940,E,NA,D,011907
ASN00062036,ULAN WATER,-32.2807,149.741,420,202305,40,D,NA,D,011945
ASN00062100,NULLO MOUNTAIN AWS,-32.7244,150.229,1130,202305,38,D,NA,D,012003
ASN00062101,MUDGEE AIRPORT AWS,-32.5628,149.6149,471,202305,32,D,NA,D,012004
ASN00063032,GOLSPIE (AYRSTON),-34.279,149.6651,855,202305,338,D,NA,D,012039
ASN00063039,KATOOMBA (MURRI ST),-33.7122,150.3087,1015,202305,120,D,NA,D,012045
ASN00063061,TRUNKEY (OLD POST OFFICE),-33.8222,149.3244,840,202305,270,D,NA,D,012067
ASN00063073,ROCKLEY POST OFFICE,-33.6896,149.5633,820,202305,129,D,NA,D,012079
ASN00063076,SOFALA OLD POST OFFICE,-33.0807,149.6901,579,202305,42,D,NA,D,012081
ASN00063081,FAULCONBRIDGE (ERTS),-33.6956,150.5408,440,202305,230,D,NA,D,012086
ASN00063201,BIGGA,-34.0833,149.15,-999.9,202305,298,D,NA,D,012202
ASN00063226,LITHGOW (COOERWULL),-33.4769,150.1303,900,202305,62,D,NA,D,012225
ASN00063245,MANDURAMA POST OFFICE,-33.6492,149.0759,661,202305,304,D,NA,D,012241
ASN00063271,TUENA (WYOMING),-34.0417,149.3611,510,202305,318,D,NA,D,012262
ASN00063283,HAMPTON (BINDO),-33.7,150.0278,1095,202305,60,D,NA,D,012269
ASN00063287,BATHURST STANLEY STREET (MACQU,-33.4111,149.5861,650,202305,90,D,NA,D,012273
ASN00063291,BATHURST AIRPORT AWS,-33.412,149.654,744.5,202305,78,D,NA,D,012275
ASN00063292,MOUNT BOYCE AWS,-33.6185,150.2741,1080,202305,52,D,NA,D,012276
ASN00063293,OBERON (JENOLAN CAVES ROAD),-33.74,149.8822,1190,202305,50,D,NA,D,012277
ASN00063295,BLACKHEATH (WOMBAT STREET),-33.6297,150.2803,1030,202305,90,D,NA,D,012279
ASN00063297,TARANA (FISH RIVER),-33.5728,149.9128,780,202305,100,D,NA,D,012281
ASN00063298,CHIFLEY DAM (CAMPBELLS RIVER (,-33.6144,149.6981,715,202305,110,D,NA,D,012282
ASN00063302,OBERON (MOUNT DAVID),-33.8275,149.6033,1070,202305,220,D,NA,D,012285
ASN00063303,ORANGE AIRPORT AWS,-33.3813,149.127,947.4,202305,188,D,NA,D,012286
ASN00063304,ROCKLEY (GLENLEA),-33.7181,149.5106,1024,202305,60,D,NA,D,012287
ASN00064008,COONABARABRAN (NAMOI STREET),-31.2712,149.2714,505,202305,10,D,NA,D,012297
ASN00064009,DUNEDOO POST OFFICE,-32.0159,149.3964,388,202305,34,E,NA,D,012298
ASN00064017,COONABARABRAN AIRPORT AWS,-31.3304,149.2699,643,202305,2,D,NA,D,012306
ASN00064025,COOLAH (BINNIA ST),-31.8231,149.72,495,202305,34,D,NA,D,012314
ASN00064027,COONABARABRAN (BARINA -TM),-31.3125,149.2048,615,202305,34,D,NA,D,012316
ASN00064029,DUNEDOO (SHELL),-32.0156,149.3925,390,202305,36,D,NA,D,012318
ASN00065020,MANILDRA (GEORGE ST),-33.183,148.6941,438,202305,118,D,NA,D,012361
ASN00065034,WELLINGTON (AGROWPLOW),-32.5635,148.9503,305,202305,66,D,NA,D,012375
ASN00065041,MOLONG TM,-33.0956,148.8692,540,202305,100,D,NA,D,012382
ASN00065051,CUMNOCK TM,-32.9283,148.7547,518,202305,22,D,NA,D,012389
ASN00065068,PARKES AIRPORT AWS,-33.1281,148.2428,323.3,202305,74,E,NA,D,012400
ASN00065070,DUBBO AIRPORT AWS,-32.2206,148.5753,284,202305,16,NA,NA,S,012402
ASN00065096,MANDAGERY (RAWENE),-33.2682,148.3945,420,202305,200,D,NA,D,012415
ASN00065098,NEUREA (FERNFIELD),-32.6833,148.9167,335,202305,30,D,NA,D,012417
ASN00065111,COWRA AIRPORT AWS,-33.8449,148.6497,296.5,202305,118,D,NA,D,012426
ASN00066036,MARRICKVILLE GOLF CLUB,-33.9186,151.1402,6,202305,360,D,NA,D,012461
ASN00066037,SYDNEY AIRPORT AMO,-33.9465,151.1731,6,202305,560,NA,NA,S,012462
ASN00066052,RANDWICK BOWLING CLUB,-33.9096,151.2419,75,202305,940,D,NA,D,012476
ASN00066058,SANS SOUCI (PUBLIC SCHOOL),-33.9942,151.1292,9,202305,220,D,NA,D,012482
ASN00066059,TERREY HILLS AWS,-33.6908,151.2253,199,202305,366,D,NA,D,012483
ASN00066098,ROSE BAY (ROYAL SYDNEY GOLF CL,-33.8809,151.2658,8,202305,848,E,NA,D,012521
ASN00066124,PARRAMATTA NORTH (MASONS DRIVE,-33.7917,151.0181,55,202305,134,D,NA,D,012546
ASN00066137,BANKSTOWN AIRPORT AWS,-33.9181,150.9864,6.5,202305,130,D,NA,D,012558
ASN00066141,MONA VALE GOLF CLUB,-33.6795,151.3076,10,202305,310,E,NA,D,012562
ASN00066148,PEAKHURST GOLF CLUB,-33.97,151.0638,20,202305,380,D,NA,D,012569
ASN00066176,AUDLEY  (ROYAL NATIONAL PARK),-34.0658,151.0567,120,202305,350,D,NA,D,012592
ASN00066194,CANTERBURY RACECOURSE AWS,-33.9057,151.1134,3,202305,540,D,NA,D,012607
ASN00067015,BRINGELLY (MARYLAND),-33.9696,150.725,122,202305,320,D,NA,D,012626
ASN00067019,PROSPECT RESERVOIR,-33.8193,150.9127,61,202305,230,D,NA,D,012630
ASN00067027,WARRAGAMBA,-33.8902,150.5934,185,202305,100,D,NA,D,012638
ASN00067033,RICHMOND RAAF,-33.6022,150.7794,19,202305,113,A,NA,S,012643
ASN00067061,ROSSMORE (SOUTH CREEK),-33.9353,150.7819,-999.9,202305,220,D,NA,D,012667
ASN00067105,RICHMOND RAAF,-33.6004,150.7761,19,202305,110,D,NA,D,012700
ASN00067108,BADGERYS CREEK AWS,-33.8969,150.7281,81.2,202305,476,D,NA,D,012703
ASN00067109,BAULKHAM HILLS EUCALYPTUS CT,-33.7678,150.9814,100,202305,135,D,NA,D,012704
ASN00067110,SEVEN HILLS  (RADIO FM 103.2),-33.7858,150.9236,80,202305,240,D,NA,D,012705
ASN00067111,NORTH PARRAMATTA (BURNSIDE HOM,-33.7931,151.0167,50,202305,120,D,NA,D,012706
ASN00067112,NORTH ROCKS (MUIRFIELD GOLF CL,-33.7672,151.0186,40,202305,135,D,NA,D,012707
ASN00067113,PENRITH LAKES AWS,-33.7195,150.6783,24.7,202305,48,D,NA,D,012708
ASN00067114,ABBOTSBURY (FAIRFIELD CITY FAR,-33.8667,150.8611,75,202305,260,D,NA,D,012709
ASN00067119,HORSLEY PARK EQUESTRIAN CENTRE,-33.8511,150.8567,100,202305,180,D,NA,D,012714
ASN00068024,DARKES FOREST (KINTYRE),-34.2272,150.9111,370,202305,250,D,NA,D,012740
ASN00068044,MITTAGONG (BEATRICE STREET),-34.4474,150.4568,635,202305,124,E,NA,D,012759
ASN00068072,NOWRA RAN AIR STATION  AWS,-34.9469,150.5353,109,202305,328,NA,NA,S,012786
ASN00068083,CULBURRA TREATMENT WORKS,-34.9282,150.7484,15,202305,223,E,NA,D,012797
ASN00068151,JERVIS BAY (POINT PERPENDICULA,-35.0936,150.8049,85,202305,429,A,NA,S,012864
ASN00068159,WEDDERBURN (BOOALBYN),-34.1653,150.8097,250,202305,100,D,NA,D,012872
ASN00068160,CAMPBELLTOWN (KENTLYN (GEORGES,-34.0542,150.8772,115,202305,110,D,NA,D,012873
ASN00068181,HAMPDEN BRIDGE (KANGAROO RIVER,-34.7275,150.5208,80,202305,80,D,NA,D,012892
ASN00068192,CAMDEN AIRPORT AWS,-34.0391,150.689,73.9,202305,78,D,NA,D,012901
ASN00068213,NOWRA BOAT SHED (SHOALHAVEN RI,-34.8667,150.605,0.1,202305,260,D,NA,D,012917
ASN00068216,MENANGLE BRIDGE (NEPEAN RIVER),-34.1194,150.7402,-999.9,202305,90,D,NA,D,012919
ASN00068224,ROBERTSON (THE PIE SHOP),-34.5858,150.6264,735,202305,142,D,NA,D,012925
ASN00068228,BELLAMBI AWS,-34.3691,150.9291,10,202305,326,D,NA,D,012929
ASN00068233,GRASSY GULLY (SHOALHAVEN RIVER,-34.8517,150.3883,30,202305,0,D,NA,D,012933
ASN00068239,MOSS VALE AWS,-34.5253,150.4217,678.4,202305,168,D,NA,D,012936
ASN00068241,ALBION PARK (WOLLONGONG AIRPOR,-34.5638,150.79,8,202305,216,D,NA,D,012938
ASN00068242,KIAMA (BOMBO HEADLAND),-34.6533,150.8609,15.5,202305,776,D,NA,D,012939
ASN00068247,BEAUMONT (THE CEDARS),-34.7679,150.562,250,202305,390,D,NA,D,012944
ASN00068249,TOUGA,-34.9636,150.0967,533.4,202305,264,D,NA,D,012946
ASN00068252,KIAMA (BRIGHTON ST),-34.6708,150.8497,62,202305,774,D,NA,D,012949
ASN00068255,BOWRAL (ORCHARD ST),-34.4875,150.4014,720,202305,140,D,NA,D,012951
ASN00068257,CAMPBELLTOWN (MOUNT ANNAN),-34.0615,150.7735,112,202305,72,E,NA,D,012952
ASN00069006,BETTOWYND (CONDRY),-35.7011,149.7896,165,202305,320,D,NA,D,012959
ASN00069017,MONTAGUE ISLAND LIGHTHOUSE,-36.2519,150.2275,52,202305,394,D,NA,D,012970
ASN00069018,MORUYA HEADS PILOT STATION,-35.9093,150.1532,17,202305,294,D,NA,D,012971
ASN00069022,"NAROOMA RVCP",-36.2144,150.1358,25,202305,317,D,NA,D,012975
ASN00069033,MORUYA (BURRA CREEK),-35.9017,149.9611,20,202305,240,D,NA,D,012985
ASN00069035,BETTOWYND (NOBBYS HILL),-35.7564,149.815,240,202305,400,D,NA,D,012987
ASN00069049,NERRIGA COMPOSITE,-35.1165,150.0847,630,202305,260,D,NA,D,013001
ASN00069062,SNOWBALL,-35.9446,149.5876,870,202305,330,D,NA,D,013014
ASN00069114,BROGO (BLANCHARDS ROAD),-36.5404,149.8229,61,202305,404,E,NA,D,013061
ASN00069127,ARALUEN LOWER (ARALUEN RD),-35.6864,149.8386,145,202305,340,D,NA,D,013069
ASN00069132,BRAIDWOOD RACECOURSE AWS,-35.4253,149.7835,665.2,202305,332,D,NA,D,013071
ASN00069133,BEMBOKA (THE KNOB),-36.6631,149.5139,400,202305,380,D,NA,D,013072
ASN00069138,ULLADULLA AWS,-35.3635,150.4827,35.7,202305,320,D,NA,D,013075
ASN00069139,BEGA AWS,-36.6722,149.8191,41,202305,310,D,NA,D,013076
ASN00069145,MORUYA (PLUMWOOD),-35.9775,149.8611,930,202305,600,D,NA,D,013080
ASN00069147,MERIMBULA AIRPORT AWS,-36.9077,149.8989,1.5,202305,234,D,NA,D,013082
ASN00069148,MORUYA AIRPORT AWS,-35.9004,150.1437,4,202305,294,D,NA,D,013083
ASN00069152,CATHCART (MOUNT DARRAGH TM),-36.8425,149.5197,880,202305,430,D,NA,D,013087
ASN00070005,BOMBALA (THERRY STREET),-36.9113,149.2379,705,202305,580,D,NA,D,013093
ASN00070008,TOMBONG (SNOWY RIVER @ BURNT H,-36.8414,148.9314,-999.9,202305,302,D,NA,D,013096
ASN00070015,CANBERRA FORESTRY,-35.3,149.1,581,202305,273,NA,NA,S,013103
ASN00070016,CAPTAINS FLAT (FOXLOW ST),-35.5889,149.4478,850,202305,332,D,NA,D,013104
ASN00070032,FAIRLIGHT STATION,-35.2274,148.9139,610,202305,492,E,NA,D,013120
ASN00070043,GUNNING RURAL SUPPLIES,-34.7823,149.2681,578,202305,560,D,NA,D,013130
ASN00070119,BIG HILL (GLEN DUSK),-34.5679,149.997,648,202305,230,D,NA,D,013203
ASN00070214,PARKERS GAP,-35.631100000000004,149.5,1249,202305,248,D,NA,D,013291
ASN00070217,COOMA AIRPORT AWS,-36.2939,148.9725,930,202305,500,D,NA,D,013293
ASN00070237,NIMMITABEL (COTTESLOE),-36.5902,149.3824,1190,202305,652,D,NA,D,013312
ASN00070242,ARANDA (BINDAGA ST),-35.2572,149.0742,630,202305,366,E,NA,D,013317
ASN00070263,GOULBURN TAFE,-34.7495,149.7034,670,202305,212,D,NA,D,013338
ASN00070307,BRUCE (AUSTRALIAN INSTITUTE OF,-35.2459,149.1068,610,202305,1480,E,NA,D,013371
ASN00070308,TORRENS (DARKE ST),-35.3757,149.087,653,202305,436,E,NA,D,013372
ASN00070328,BOMBALA AWS,-37.0016,149.2336,760.5,202305,570,D,NA,D,013389
ASN00070335,HILLVIEW (SHOALHAVEN RIVER),-35.2,149.955,550,202305,280,D,NA,D,013395
ASN00070339,TUGGERANONG (ISABELLA PLAINS),-35.4184,149.0937,586.7,202305,456,D,NA,D,013399
ASN00070346,SUTTON (GOOLABRI DVE),-35.1889,149.251,655,202305,481,E,NA,D,013405
ASN00070349,MOUNT GININI AWS,-35.5293,148.7721,1760,202305,498,D,NA,D,013408
ASN00071019,SNOWY RIVER @ DALGETY WEIR,-36.5067,148.8281,-999.9,202305,262,D,NA,D,013426
ASN00071032,THREDBO AWS,-36.4917,148.2859,1957,202305,832,D,NA,D,013434
ASN00071041,THREDBO VILLAGE,-36.5031,148.304,1380,202305,1257,D,NA,D,013443
ASN00071073,BRINDABELLA (KOOLAMI),-35.3884,148.7475,645,202305,382,E,NA,D,013450
ASN00072012,CARABOST,-35.6043,147.7263,345,202305,248,D,NA,D,013462
ASN00072023,HUME RESERVOIR,-36.1039,147.0329,184,202305,290,D,NA,D,013472
ASN00072091,CABRAMURRA SMHEA,-35.9383,148.3842,1475,202305,1238,NA,NA,S,013535
ASN00072101,HOLBROOK (NARRABILLA),-35.7112,147.4859,315,202305,259,E,NA,D,013544
ASN00072150,WAGGA WAGGA AMO,-35.1583,147.4573,212,202305,260,NA,NA,S,013554
ASN00072152,ARGALONG (SANDY CREEK),-35.317,148.433,700,202305,586,D,NA,D,013556
ASN00072156,MURRAY RIVER @ JINGELLIC,-35.9333,147.7167,-999.9,202305,274,D,NA,D,013559
ASN00072160,ALBURY AIRPORT AWS,-36.069,146.9509,163.5,202305,318,D,NA,D,013562
ASN00072161,CABRAMURRA SMHEA AWS,-35.9371,148.3779,1482.4,202305,866,D,NA,D,013563
ASN00072162,KHANCOBAN AWS,-36.2304,148.1405,339.3,202305,458,D,NA,D,013564
ASN00072169,TUMBARUMBA (WONDALMA),-35.7108,148.0026,675,202305,412,D,NA,D,013569
ASN00073007,BURRINJUCK DAM,-34.9997,148.5984,390,202305,265,D,NA,D,013578
ASN00073014,GRENFELL (QUONDONG RD),-33.9029,148.1718,410,202305,144,D,NA,D,013585
ASN00073019,JUNEE TREATMENT WORKS,-34.8456,147.5714,280,202305,406,D,NA,D,013590
ASN00073029,MURRUMBURRAH OLD POST OFFICE,-34.5495,148.3493,370,202305,332,D,NA,D,013600
ASN00073032,QUANDIALLA POST OFFICE,-34.0112,147.7937,250,202305,158,E,NA,D,013603
ASN00073050,BOWNING (WANGANUI),-34.7611,148.8258,560,202305,366,D,NA,D,013621
ASN00073115,BRUNGLE (BONNIE DOON),-35.1687,148.2311,265,202305,364,D,NA,D,013681
ASN00073137,MUTTAMA (GROVENE),-34.8083,148.1103,270,202305,386,D,NA,D,013699
ASN00073138,YOUNG AIRPORT,-34.2493,148.2475,379.6,202305,270,E,NA,D,013700
ASN00073150,STOCKINBINGAL (SUNNYDALE),-34.5307,147.8442,340,202305,172,D,NA,D,013709
ASN00073151,TEMORA AIRPORT,-34.4292,147.5111,280.5,202305,136,D,NA,D,013710
ASN00074042,FINLEY POST OFFICE,-35.6408,145.5762,110,202305,136,E,NA,D,013752
ASN00074050,GRONG GRONG (JUNEE ST),-34.738,146.7825,165,202305,268,E,NA,D,013760
ASN00074081,MULWALA POST OFFICE,-35.9878,146.0061,127,202305,158,E,NA,D,013791
ASN00074118,WHITTON (CONAPAIRA ST),-34.5139,146.1848,132,202305,92,E,NA,D,013826
ASN00074127,WAGGA WAGGA (GURWOOD STREET),-35.1069,147.3636,180,202305,252,E,NA,D,013835
ASN00074148,"NARRANDERA AIRPORT",-34.7071,146.5126,145,202305,164,D,NA,D,013855
ASN00074162,MORUNDAH HOTEL,-34.9349,146.3031,128,202305,170,E,NA,D,013867
ASN00074202,GANMAIN (ROSEDALE),-34.8504,146.9778,175,202305,236,D,NA,D,013905
ASN00074249,COLEAMBALLY IRRIGATION,-34.8016,145.8904,121,202305,110,E,NA,D,013936
ASN00074258,DENILIQUIN AIRPORT AWS,-35.5575,144.9458,94,202305,153,NA,NA,S,013942
ASN00074261,BECKOM (WALLEROOBIE (GOLDEN VA,-34.531,146.9806,249,202305,182,E,NA,D,013944
ASN00074267,TALLIMBA (AVONLEA),-33.9956,146.7683,235,202305,116,E,NA,D,013950
ASN00075041,GRIFFITH AIRPORT AWS,-34.2487,146.0695,134,202305,90,D,NA,D,013991
ASN00075140,GUNBAR  (KELSEY),-34.1533,145.1409,99,202305,70,E,NA,D,014085
ASN00075163,HILLSTON  ( ALDINGA),-33.3476,145.8703,135,202305,82,E,NA,D,014102
ASN00076000,ANNUELLO,-34.85,142.7811,52,202305,124,D,NA,D,014113
ASN00076012,MANANGATANG (EUREKA EAST),-35.1702,143.0001,60,202305,118,D,NA,D,014124
ASN00076018,MANANGATANG (COCAMBA),-35.1136,142.9194,55,202305,104,E,NA,D,014130
ASN00076031,MILDURA AIRPORT,-34.2358,142.0867,50,202305,116,D,NA,D,014143
ASN00076038,MURRAYVILLE,-35.2628,141.1789,71,202305,130,D,NA,D,014150
ASN00076047,OUYEN (POST OFFICE),-35.0694,142.3158,50.3,202305,148,D,NA,D,014158
ASN00076050,PIRA WILD HORSE PLAINS,-35.2555,143.3683,89,202305,110,D,NA,D,014161
ASN00076064,WALPEUP RESEARCH,-35.1201,142.004,105,202305,162,E,NA,D,014175
ASN00076067,WERRIMULL,-34.3883,141.5954,65,202305,106,E,NA,D,014178
ASN00076103,BRONZEWING,-35.189,142.3725,50,202305,128,D,NA,D,014212
ASN00076105,BOUNDARY BEND,-34.7164,143.1506,58,202305,143,D,NA,D,014214
ASN00076133,LINDSAY POINT,-34.1051,141.0166,59,202305,100,E,NA,D,014237
ASN00077008,BIRCHIP (WOODLANDS),-35.9244,142.851,100,202305,76,E,NA,D,014247
ASN00077025,LAKE BOGA,-35.4609,143.6286,71,202305,108,E,NA,D,014262
ASN00077028,BIRCHIP (MARLBED),-35.7955,142.8768,91,202305,85,E,NA,D,014265
ASN00077034,QUAMBATOOK SOUTH,-35.9296,143.4992,95,202305,82,E,NA,D,014271
ASN00077039,SEA LAKE (POST OFFICE),-35.5046,142.8493,54,202305,140,E,NA,D,014276
ASN00077048,ULTIMA (POST OFFICE),-35.4699,143.2669,79,202305,117,D,NA,D,014285
ASN00077052,WOOMELANG,-35.6803,142.6664,79,202305,124,E,NA,D,014289
ASN00077079,NINYEUNOOK,-36.0086,143.3719,105,202305,130,E,NA,D,014316
ASN00077094,SWAN HILL AERODROME,-35.3766,143.5416,71,202305,96,D,NA,D,014330
ASN00078010,DIMBOOLA,-36.4644,142.0327,111.3,202305,206,E,NA,D,014342
ASN00078015,NHILL AERODROME,-36.3092,141.6486,138.9,202305,305,NA,NA,S,014347
ASN00078042,WYCHEPROOF (POST OFFICE),-36.0786,143.225,110,202305,136,D,NA,D,014371
ASN00078072,DONALD,-36.3697,142.9709,114,202305,198,E,NA,D,014400
ASN00078073,YALLANGIP,-36.1,142.3,-999.9,202305,278,D,NA,D,014401
ASN00078086,JEPARIT,-36.14,141.9878,85,202305,110,E,NA,D,014412
ASN00079011,EDENHOPE (POST OFFICE),-37.0364,141.2967,162,202305,378,D,NA,D,014424
ASN00079017,GOROKE (POST OFFICE),-36.7181,141.4729,162,202305,226,E,NA,D,014430
ASN00079019,GREAT WESTERN (SEPPELT),-37.1847,142.8553,280,202305,234,E,NA,D,014432
ASN00079028,LONGERENONG,-36.6722,142.2991,133,202305,140,E,NA,D,014441
ASN00079036,"NATIMUK",-36.7416,141.9429,122,202305,176,E,NA,D,014449
ASN00079071,APSLEY (POST OFFICE),-36.9681,141.0834,111,202305,509,D,NA,D,014484
ASN00079075,RUPANYUP (POST OFFICE),-36.6287,142.6321,145,202305,200,E,NA,D,014488
ASN00079097,KANAGULK,-37.1169,141.8031,188.8,202305,232,D,NA,D,014510
ASN00079099,EDENHOPE AIRPORT,-37.0222,141.2657,155,202305,294,D,NA,D,014512
ASN00079100,HORSHAM AERODROME,-36.6697,142.1731,133.8,202305,196,D,NA,D,014513
ASN00079103,GRAMPIANS (MOUNT WILLIAM),-37.295,142.6039,1150,202305,1108,D,NA,D,014514
ASN00079105,STAWELL AERODROME,-37.068,142.7412,227.9,202305,128,D,NA,D,014516
ASN00079107,PATYAH (BOOROOPKI),-36.8132,141.2599,140,202305,244,D,NA,D,014518
ASN00080004,CANARY ISLAND,-35.9741,143.8525,86,202305,70,E,NA,D,014523
ASN00080015,ECHUCA  AERODROME,-36.1647,144.7642,96,202305,154,D,NA,D,014533
ASN00080023,KERANG,-35.7236,143.9197,77.7,202305,94,D,NA,D,014541
ASN00080027,KORONG VALE (BURNBANK),-36.3203,143.735,135,202305,132,D,NA,D,014545
ASN00080036,MINCHA,-35.9681,144.1073,85,202305,156,E,NA,D,014554
ASN00080049,ROCHESTER,-36.3613,144.7108,114,202305,178,E,NA,D,014567
ASN00080056,TONGALA,-36.2497,144.9531,100.1,202305,208,E,NA,D,014574
ASN00080061,WEDDERBURN (POST OFFICE),-36.4183,143.6123,200,202305,148,E,NA,D,014579
ASN00080067,CHARLTON (DONALD ST),-36.2717,143.3453,130,202305,146,E,NA,D,014585
ASN00080091,KYABRAM DPI,-36.335,145.0638,105,202305,138,D,NA,D,014608
ASN00080109,COBRAM (GOULBURN MURRAY),-35.9119,145.6447,113,202305,150,E,NA,D,014623
ASN00080128,CHARLTON,-36.2847,143.3341,131.7,202305,152,D,NA,D,014642
ASN00081007,CANIAMBO,-36.4565,145.6569,130,202305,256,E,NA,D,014650
ASN00081008,COLBINABBIN,-36.5421,144.7751,144,202305,135,E,NA,D,014651
ASN00081020,INGLEWOOD (POST OFFICE),-36.5753,143.8695,150.3,202305,221,E,NA,D,014663
ASN00081046,STANHOPE,-36.443600000000004,144.9828,108,202305,128,E,NA,D,014688
ASN00081049,TATURA INST SUSTAINABLE AG,-36.4378,145.2672,114,202305,166,D,NA,D,014691
ASN00081085,DUNOLLY,-36.8589,143.7297,210,202305,142,E,NA,D,014726
ASN00081087,BUNGEET (HIGHLANDS),-36.2567,146.0433,274,202305,196,D,NA,D,014728
ASN00081120,RUSHWORTH (RAGLUS),-36.5886,145.0198,160,202305,132,E,NA,D,014755
ASN00081123,BENDIGO AIRPORT,-36.7395,144.3266,208,202305,180,D,NA,D,014758
ASN00081124,YARRAWONGA,-36.0294,146.0306,128.9,202305,192,D,NA,D,014759
ASN00081125,SHEPPARTON AIRPORT,-36.4289,145.3947,113.9,202305,158,D,NA,D,014760
ASN00081127,AVOCA RIVER AT ARCHDALE JUNCTI,-36.8867,143.5022,-999.9,202305,120,D,NA,D,014762
ASN00082018,UPLANDS (GIBBO RIVER PARK),-36.7691,147.6956,610,202305,668,E,NA,D,014781
ASN00082029,MILAWA BROWN BROS,-36.456,146.4299,158,202305,282,E,NA,D,014792
ASN00082039,RUTHERGLEN RESEARCH,-36.1047,146.5094,175,202305,306,D,NA,D,014801
ASN00082041,SPRINGHURST,-36.1859,146.4694,190,202305,316,E,NA,D,014803
ASN00082042,STRATHBOGIE,-36.8472,145.7308,502,202305,372,D,NA,D,014804
ASN00082056,WODONGA EXPRESS,-36.1167,146.9,152,202305,420,D,NA,D,014818
ASN00082076,DARTMOUTH RESERVOIR,-36.5353,147.4984,365,202305,406,D,NA,D,014838
ASN00082084,BOHO (HONEYSUCKLE CK U/S VIOLE,-36.7136,145.7603,330,202305,348,D,NA,D,014846
ASN00082090,DEDERANG,-36.4793,147.0297,261,202305,530,E,NA,D,014852
ASN00082105,WHITFIELD (KING RIVER AT CHESH,-36.8314,146.3982,292.6,202305,432,D,NA,D,014865
ASN00082112,OVENS RIVER @ EUROBIN,-36.6533,146.8567,-999.9,202305,688,D,NA,D,014870
ASN00082116,MYRRHEE (BOGGY CK AT ANGLESIDE,-36.6083,146.3583,-999.9,202305,318,D,NA,D,014874
ASN00082128,HURDLE CK AT BOBINAWARRAH,-36.5131,146.4483,-999.9,202305,284,D,NA,D,014885
ASN00082138,WANGARATTA AERO,-36.4206,146.3056,152.6,202305,314,D,NA,D,014892
ASN00082139,HUNTERS HILL,-36.2136,147.5394,981,202305,680,D,NA,D,014893
ASN00082140,LIMA EAST (CHARNWOOD),-36.8542,145.9381,340,202305,374,D,NA,D,014894
ASN00082142,TOLMIE (MOUNT TABLETOP REPEATE,-36.9461,146.2197,915,202305,568,D,NA,D,014896
ASN00082143,SHEANS CREEK (HERONSLEA),-36.7861,145.6581,220,202305,306,E,NA,D,014897
ASN00082144,KELVIN VIEW (WATERHOUSE RESERV,-36.8167,145.64,300,202305,268,D,NA,D,014898
ASN00082145,GOORAM (HILLSIDE),-36.8753,145.5783,255,202305,232,D,NA,D,014899
ASN00082146,GOORAM (MORELLA),-36.9322,145.5842,320,202305,286,D,NA,D,014900
ASN00082147,MERTON (ENDERLEE),-36.9217,145.6769,495,202305,238,D,NA,D,014901
ASN00082148,TOO ROUR (MOROKO PARK),-36.8278,145.8494,590,202305,350,D,NA,D,014902
ASN00082149,EUROA (CASTLE CK AT TELFORD BR,-36.7858,145.5683,190,202305,278,D,NA,D,014903
ASN00082151,SEVEN CREEKS AT STRATHBOGIE,-36.8628,145.7333,470,202305,370,D,NA,D,014904
ASN00082153,KITHBROOK (BALQUHAIN),-36.8206,145.705,580,202305,380,D,NA,D,014905
ASN00082154,SEVEN CREEKS AT D/S POLLY MCQU,-36.8892,145.6814,440,202305,312,D,NA,D,014906
ASN00082155,HOLLAND CK AT WRIGHTLEY,-36.8211,146.1278,430,202305,386,D,NA,D,014907
ASN00082156,MYRHEE (HANDCOCKS),-36.7903,146.28,-999.9,202305,582,D,NA,D,014908
